city_id,id,slug,is_nfc,cash_in,type,working_weekends,is_digital,lat,lng,work_hours_week,work_hours_saturday,work_hours_sunday,address,name,function
26,1010,ot-xirdalan-arazmarket4,0,0,A,0,0,40.45662,49.74158,,,,"Abşeron r., Xırdalan ş. M. Hüseynzadə küç,1-ci mərtəbə",ARAZ MARKET Xırdalan 4,payment_terminal
1,1011,ot-bine-arazmarket1,0,0,A,0,0,40.45036,50.08906,,,,"Bakı ş.,Əzizbəyov rayonu Binə qəsəbəsi Ə.İsazadə kucəsi 5",ARAZ MARKET BİNƏ 1,payment_terminal
1,1012,ot-bineqedi-arazmarket-bileceri,0,0,A,0,0,40.43625,49.80342,,,,"Bakı şəhəri Binəqədi r. Biləcəri qəs, Mehdi Hüseynzadə 17",ARAZ MARKET BİLƏCƏRİ,payment_terminal
1,1013,ot-mashtaga-arazmarket-savalan,0,0,A,0,0,40.50661,49.97543,,,,"Bakı ş.,Sabuncu r. Maştağa qəs., Zabrat -Maştağa şössesi",ARAZ MARKET (SAVALAN),payment_terminal
1,1014,ot-xezer-arazmarket-buzovna,0,0,A,0,0,40.40128,49.83154,,,,Xəzər rayonu buzovna qəsəbəsi Heydər Eyvazov kucəsi 47,Araz Market (BUZOVNA),payment_terminal
1,1015,ot-yasamal-arazmarket-bdu,0,0,A,0,0,40.37455,49.81163,,,,"Bakı şəhəri, Yasamal Rayonu, Firuddin Ağayev küçəsi 9 ünvani",ARAZ MARKET (BDU),payment_terminal
2,1016,ot-saray-arazmarket,0,0,A,0,0,40.52429,49.68744,,,,"Abşeron rayonu, Saray qəsəbəsi",ARAZ MARKET (SARAY),payment_terminal
2,1017,ot-absheron-arazmarket-ceyranbatan,0,0,A,0,0,40.54368,49.66297,,,,"Abşeron rayonu, Ceyranbatan qəsəbəsi, Bakı-Sumqayıt şossesi",ARAZ MARKET (CEYRANBATAN),payment_terminal
1,1018,ot-hovsan-arazmarket,0,0,A,0,0,40.36069,50.08003,,,,"Bakı şəhəri, Suraxanı rayonu,Hövsan qəsəbəsi,İ.Əhlimanov küçəsi 225",ARAZ MARKET (HÖVSAN),payment_terminal
45,1019,ot-danyeri-avm,0,0,A,0,0,39.21264,45.42209,,,,Naxçıvan şəhəri Ə.Əliyev kç. 46,DANYERİ AVM,payment_terminal
21,1021,ot-xan-market-goranboy-tapqaraqoyunlu-kendi,0,0,A,0,0,40.43153,46.76967,,,,"Goranboy ray, Tapqaraqoyunlu kəndi",Xan Market Goranboy,payment_terminal
1,1022,ot-favorit-market-buzovna,0,0,A,0,0,40.52716,50.09811,,,,"Bakı. Xəzər rayonu, Buzovna ŞTQ. Rasim İmanov küç 22a",Favorit market,payment_terminal
55,1023,ot-araz-market-sumqayit,0,0,A,0,0,40.57021,49.68913,,,,"Sumqayit şəhəri, 9 mkr, Üzeyir Hacibəyov küçəsi 25C",Araz Market Sumqayit,payment_terminal
2,1024,ot-araz-market-masazir-2,0,0,A,0,0,40.47901,49.75255,,,,"Abşeron r., Masazır ş., Əliağa Vahid kücəsi",Araz Market Masazir 2,payment_terminal
1,1025,araz-market-olimpik,0,0,A,0,0,40.40128,49.83154,,,,Nəsimi rayonu Mərdanov qardaşlari 137,Araz market Olimpik,payment_terminal
1,1026,ot-araz-market-sahil,0,0,A,0,0,40.22518,49.57233,,,,"Bakı ş., Qaradağ r., Sahil qəs., Məhərrəm Seyidov küç15",Araz Market Sahil,payment_terminal
1,1028,ot-araz-market-sabuncu,0,0,A,0,0,40.44604,49.91651,,,,"Sabunçu qəs., Ə.Məmmədəliyev küç. 18A (Sabunçu xəstəxanasının yaxınlığı)",Araz Market Sabuncu,payment_terminal
29,1029,ot-araz-market-imishli,0,0,A,0,0,39.86757,48.06013,,,,İmişli r. Qabil İsmayılzadə küç.,İmişli Araz Market,payment_terminal
12,1030,ot-araz-market-berde,0,0,A,0,0,40.39921,47.12290,,,,"Bərde ş., Heyder Eliyev pr.",Araz Market Bərdə,payment_terminal
1,1031,ot-araz-nerimanov-2,0,0,A,0,0,40.39679,47.87904,,,,"Nərimanov rayonu,Ağa nemətulla, ev 70a",Araz Nerimanov 2,payment_terminal
25,1032,ot-zaur-market,0,0,A,0,0,41.76446,48.67856,,,,"Xaçmaz rayonu, Nabran qəsəbəsi",Zaur market,payment_terminal
1,1033,ot-araz-market-sherifzade,0,0,A,0,0,40.38211,49.80426,,,,"Bakı şəhəri, Şərfizadə küçəsi ünvanı",Araz market Şərifzadə,payment_terminal
1,1034,ot-mida,0,0,A,0,0,40.38189,50.06812,,,,Hovsan yasayis kompleksi,MİDA,payment_terminal
1,1035,ot-oba-market,0,0,A,0,0,40.05325,47.45539,,,,"Ağcabədi rayonu, Qarabağ küçəsi 55",Oba market,payment_terminal
1,1037,ot-sulumart-market,0,0,A,0,0,40.43012,49.77281,,,,"Binəqədi rayonu, Sulutəpə qəsəbəsi",Sulumart market,payment_terminal
1,1038,ot-zeytun-market,0,0,A,0,0,40.38606,49.84808,,,,"Bakı ş., Nəsimi r., Ceyhun Hacıbəyli 37A",Zeytun Market,payment_terminal
1,1039,ot-azercell-plaza,0,0,A,0,0,40.40007,49.80954,,,,"Bakı ş., Yasamal r., Tbilisi pr. 149",Azercell Plaza,payment_terminal
1,1040,ot-favorit-xezer-market,0,0,A,0,0,40.38110,49.96518,,,,Bakı şəhəri Gəncə prospekti 2942 saylı məhəllə korpus 3,Favorit Xəzər,payment_terminal
1,1041,ot-bolmart-market-9-mkr,0,0,A,0,0,40.42128,49.81493,,,,Bakı ş. Binəqədi r. M.Cəlal küç 314,Bolmart Super market  9-cu mkr.,payment_terminal
1,1042,ot-favorit-market-neapol,0,0,A,0,0,40.38365,49.96660,,,,Bakı şəhəri General Şıxlınski küçəsi 55,Favorit Neapol,payment_terminal
1,1043,ot-araz-market-nerimanov3,0,0,A,0,0,40.40210,49.87407,,,,"Bakı şəhəri, Nərimanov Rayonu, Nazim Hacıyev küçəsi ilə Faiq Yusifov küçələrinin kəsişməsi, 1950 ci məhəllə",Araz Nerimanov-3,payment_terminal
55,1044,ot-qayali-market,0,0,A,0,0,40.61906,49.56253,,,,"Sumqayıt ş, H.Z.Tağıyev qəs.",Sumqayıt Qayalı Market,payment_terminal
55,1045,ot-qayali-market-sumqayit,0,0,A,0,0,40.56999,49.67535,,,,"Sumqayıt ş., 11mkr.Ş.Bədəlbəyli küç.",SUMQAYIT QAYALI MARKET-2,payment_terminal
1,1046,araz-market-6mkr-2express,0,0,A,0,0,40.42574,49.82926,,,,"Bakı şəhəri,Binəqədi rayonu,Svetlana Məmmədova küçəsi 209F","Araz 6 mkr, 2 express",payment_terminal
1,1047,ot-araz-market-xirdalan-aaf,0,0,A,0,0,40.45726,49.72300,,,,"Xırdalan şəh., AAAF Park yaşayış kompleksi",Araz Xirdalan-3,payment_terminal
60,1048,ot-shemkir-zumrud-market-deller,0,0,A,0,0,40.87790,46.02825,,,,Şəmkir r. Dəlilər kəndi,Şəmkir Zümrüd Market 2,payment_terminal
1,1049,ot-araz-market-neftciler,0,0,A,0,0,40.41339,49.94951,,,,Nizami rayonu Şərifli kucəsi 25,Araz Neftçiler,payment_terminal
1,1050,ot-araz-market-capayev,0,0,A,0,0,40.38894,49.85726,,,,"Bakı ş., Nərimanov r-nu, Qarabağ küçəsi    ",Araz Təbriz capayev,payment_terminal
1,1051,ot-araz-market-guneshli,0,0,A,0,0,40.36900,49.97575,,,,"Bakı ş., Suraxanı r-nu, Yeni Günəşli qəs., AB yaşayış sahəsi 127                                                    ",Araz Gunəşli-5,payment_terminal
1,1053,ot-araz-market-8km,0,0,A,0,0,40.40212,49.95533,,,,"Bakı şəhəri Nizami rayonu Bəhruz Nuriyev ev. 32, 2-ci blok 1 ci Mərtəbə",Araz 8-km,payment_terminal
55,1055,ot-market-tagiyev-qes,0,0,A,0,0,40.62240,49.55488,,,,Sumqayıt ş. H.Z.Tağıyev qəs.  F.Qeyibov küç. 14,"Market, Tağıyev qəsəbəsi",payment_terminal
1,1056,ot-nursel-market,0,0,A,0,0,40.41622,49.84114,,,, Binəqədi r. Ə.Naxçıvani küç 18/A,Nursel market,payment_terminal
1,1057,ot-tayga-market-dernegul,0,0,A,0,0,40.41603,49.84957,,,,Binəqədi r. Dərnəgül qəs. ev 19 aşırım,Tayga market,payment_terminal
1,1058,ot-tayga-market-binegedi,0,0,A,0,0,40.43179,49.85184,,,,Binəqədi r. Binəqədi şossesi 308 c,Tayga market,payment_terminal
1,1059,ot-stimul-market,0,0,A,0,0,40.43384,49.95631,,,,Sabunçu r. Bakıxanov q. Yavər Əliyev küç. 26,Stimul Hospital,payment_terminal
1,1060,ot-mini-market,0,0,A,0,0,40.36823,49.96003,,,,Bakı ş. Gəncə pr. 20 A,Mini market,payment_terminal
1,1061,ot-myshops,0,0,A,0,0,40.37850,49.84793,,,,Azadlıq pr.18,Myshops,payment_terminal
1,1062,ot-meryem-plaza,0,0,A,0,0,40.38597,49.83333,,,,"Bakı şəhəri, Bəsti Bağırova 12",MERYEM PLAZA,payment_terminal
2,1063,ot-bolmart-mehdiabad,0,0,A,0,0,40.50096,49.85618,,,,Bakı ş. Abşeron r. Mehdiabat qəs.,Bolmart Mehdiabad,payment_terminal
1,1064,ot-bolmart-semed-vurgun75,0,0,A,0,0,40.38371,49.83799,,,,BAKI SH. NESIMI RAY. S.VURGUN KUCH.75,BOLMART S.VURGUN KUCH.,payment_terminal
1,1065,ot-bolmart-market-salamzade,0,0,A,0,0,40.39866,49.81619,,,,BAKI SH. YASAMAL RAY. A.SALAMZADE KUCH.1058,BOLMART Yasamal,payment_terminal
1,1066,ot-bolmart-market-zabrat,0,0,A,0,0,40.49166,49.95307,,,,"Bakı ş, Zabrat qəs, Montin küç 21",Bolmart Zabrat,payment_terminal
1,1067,ot-grandmart-zabrat,0,0,A,0,0,40.49136,49.95456,,,,Bakı ş. Zabrat qəs. Zabrat dairəsi,GrandMart Zabrat,payment_terminal
1,1068,ot-avromart-market,0,0,A,0,0,40.37716,49.85501,,,,Bakı şəh. Nəsimi ray. Nizami küç. 129e,AvroMart,payment_terminal
1,1069,ot-mashataga-market,0,0,A,0,0,40.53251,50.00469,,,,"Bakı şəhəri, Sabunçu rayonu Maştaga qəsəbəsi",MASTAGA 24 SAAT MARKET,payment_terminal
1,1070,ot-grandmart-yasamal,0,0,A,0,0,40.38358,49.81011,,,,Bakı şəh. Yasamal ray. 589-cu məhəllə H. Məcidov küç.,Grandmart market,payment_terminal
1,1071,ot-grandmart-bakixanov,0,0,A,0,0,40.42752,49.93948,,,,Sabunçu ray. B.Bünyadov küç. 134,Grandmart Bakıxanov,payment_terminal
55,1072,ot-qayali-market-sumqayit-10mkr,0,0,A,0,0,40.56854,49.69181,,,,Sumqayıt Şəh.10cu mk.Babək küç.,Qayali market Sumqayit,payment_terminal
55,1073,ot-grandmart-sumqayit,0,0,A,0,0,40.57922,49.69366,,,,SUMQAYIT S.VURGUN küç. 6 .6.mkr,Grandmart Sumqayıt,payment_terminal
1,1074,ot-grandmart-market-asiman,0,0,A,0,0,40.37585,49.92769,,,,Xətai rayonu ilqar abbasov küç 7a,Grandmart Asiman,payment_terminal
1,1075,ot-bolmart-market-neftciler,0,0,A,0,0,40.40836,49.93870,,,,Rüstəm Rüstəmov küç. 23,Bolmart Neftçilər,payment_terminal
1,1076,ot-bolmart-market-qarayev,0,0,A,0,0,40.41417,49.93985,,,,Q.QARAYEV PR.46 GRANDMART SUPERMARKET,Grandmart Supermarket,payment_terminal
1,1077,ot-grandmarket-afcenter,0,0,A,0,0,40.37631,49.84188,,,,"Səməd Vurgun 34, Af centr. altı.Toys Shop yanı",Grand Mart Af centr S,payment_terminal
1,1078,ot-bolmart-market-saray,0,0,A,0,0,40.52210,49.68911,,,,"Bakı - Sumqayıt yolu, Saray postu",Bolmart Saray,payment_terminal
47,1079,ot-oguzmart,0,0,A,0,0,41.07185,47.46340,,,,"Oğuz şəhəri,Cavanşir küçəsi 44.",Oğuz Mart,payment_terminal
1,1080,ot-shohret-market,0,0,A,0,0,40.36957,49.96363,,,,"Bakı ş, Xətayi rayonu general Şıxlinski 42A",Şöhrət market,payment_terminal
50,1081,ot-ulacali-market,0,0,A,0,0,40.07268,48.59251,,,,Sabirabad Ulacali kendi,Sabirabad Ulacali Market,payment_terminal
1,1082,ot-araz-market-glassplaza,0,0,A,0,0,40.36661,49.81684,,,,Bakı şəhəri Yasamal rayonu Hüseyn Cavid prospekti 17,Araz Market - GLASS PLAZA,payment_terminal
24,1083,ot-haciqabul-talis-ticaret-merkezi,0,0,A,0,0,40.03886,48.92142,,,,HACIQABUL rayon  Talış kəndi,Hacıqabul Talış T.M,payment_terminal
1,1084,ot-araz-market-yasamal1,0,0,A,0,0,40.38198,49.80717,,,,"Baki seheri Yasamal rayonu Yeni Yasamal-1 kuc, 14",Araz Market Y. Yasamal-1,payment_terminal
33,1085,ot-nicat-market-qax,0,0,A,0,0,41.41961,46.91715,,,,"Qax şəhəri  H.Əliyev  pr.,4",Nicat market,payment_terminal
59,1086,ot-shekistore,0,0,A,0,0,41.19804,47.17607,,,,Şəki şəhəri M.Ə.Rəsulzadə küç 166 B,Şəki Store market,payment_terminal
1,1087,ot-araz-market-yasamal2,0,0,A,0,0,40.38023,49.80725,,,,"Baki seheri,Yasamal rayonu, M.Seyidov kuc 23",Araz market Yasamal-2,payment_terminal
50,1088,ot-oba-market-sabirabad,0,0,A,0,0,40.01952,48.47804,,,,"Sabirabad rayonu, Nizami kəndi",Oba Market,payment_terminal
1,1089,ot-araz-elmler,0,0,A,0,0,40.37733,49.81053,,,,Yasamal rayon Şəhriyar kucəsi 6 nomrəli binanin 1 ci mərtəbəsi,Araz market Elmlər,payment_terminal
1,1090,ot-araz-market-nizami1,0,0,A,0,0,40.38592,49.80835,,,,"Yasamal rayonu, 422-ci məhəllə, Mirzə İbrahimov küç. 53, 1-ci mərtəbə","Araz Market, Nizami-1",payment_terminal
1,1091,ot-araz-yasamal,0,0,A,0,0,40.38592,49.80859,,,,"Yasamal rayonu, H.Zərdabi pr. 593-cü məhəllə",Araz Market Yasamal,payment_terminal
1,1092,ot-il-market,0,0,A,0,0,40.54752,49.91097,,,,"Sabunçu rayonu, Kürdəxanı qəsəbəsi",İl market,payment_terminal
1,1093,ot-favorit-market-bayil,0,0,A,0,0,40.32894,49.81885,,,,Bakı şəhəri Səbail rayonu Salyan şössesi 20-ci ünvan,Favorit market Bayil (20-ci sahe),payment_terminal
1,1094,ot-araz-badamdar,0,0,A,0,0,40.33899,49.80744,,,,"Baki şəhəri, Səbail ray., Badamdar qəs., T.Məmmədov 3 və 5 unvanında yerləşən 18 mərtəbəli binanın 1-ci mərtəbəsi",Araz Market Badamdar-2,payment_terminal
74,1095,ot-grandmart-shusha,0,0,A,0,0,39.75322,46.74633,,,,Şuşa şəhəri,Grand market,payment_terminal
1,1097,ot-araz-market-badamdar,0,0,A,0,0,40.35114,49.81062,,,,"Bakı şəhəri, Səbail Rayonu, Badamdar qəsəbəsi, 1 yaşayış massivi",Araz Market Badamdar,payment_terminal
1,1098,ot-araz-market-sulutepe3,0,0,A,0,0,40.43297,49.77141,,,,"Bakı ş., Binəqədi r-nu, Sulutəpə qəs., R.Allahverdiyev küçəsi, ev 25F   ",Araz market Sulutəpə-3,payment_terminal
20,1099,ot-sakit-market,0,0,A,0,0,40.63896,46.34411,,,,"Gəncə ş., Gülüstan qəsəbəsi, 37 saylı binanın cənub küç.",Sakit Market,payment_terminal
1,1100,ot-favorit-market-resulzade,0,0,A,0,0,40.43632,49.84574,,,,"Bakı şəhəri, Binəqədi rayonu, Azadlıq prospekti 157",Favorit market Rəsulzadə,payment_terminal
1,1101,ot-spar-market-resulzade,0,0,A,0,0,40.43628,49.84424,,,,"Bakı şəhəri, Binəqədi rayonu, M.Ə.Rəsulzadə qəsəbəsi, Binəqədi şosesi 195 E",Spar market Rəsulzadə,payment_terminal
1,1102,araz-market-6mkr1,0,0,A,0,0,40.42639,49.83223,,,,"Bakı şəhəri, Binəqədi rayonu, 6 - cı mikrorayon, İsrafil Həşimov küçəsi ev 1 a",Araz market 6 Mkr 1,payment_terminal
1,1103,araz-market-9mkr,0,0,A,0,0,40.42034,49.80946,,,,"Bakı şəhəri, Binəqədi rayonu, 9 mkr, H.Seyidzadə küçəsi 38",Araz Market 9 Mkr,payment_terminal
1,1104,araz-market-binegedi,0,0,A,0,0,40.46602,49.82926,,,,"Bakı şəhəri, Binəqədi rayonu, Binəqədi ŞTQ 2-ci mədən",Araz Market Binəqədi,payment_terminal
1,1105,ot-favorit-market-binegedi,0,0,A,0,0,40.46602,49.82931,,,,"Bakı şəhəri, Binəqədi rayonu, Gülməmməd Ramazanov küç (1 sayli qarışıq mallar mağazasi) 2-ci Mədən. Korpus-52",Favorit Market Binəqədi,payment_terminal
1,1106,ot-abad-market,0,0,A,0,0,41.48846,46.62327,,,,"Zaqatala şəhəri, Əliabad qəsəbəsi",Abad Market,payment_terminal
1,1107,ot-araz-market-7mkr-express,0,0,A,0,0,40.43319,49.85102,,,,"Bakı şəhəri, Binəqədi rayonu, 7-ci mkr, 3123-cü məhəllə",Araz Market 7 mkr express,payment_terminal
1,1108,ot-araz-market-7mk-2,0,0,A,0,0,40.42901,49.85392,,,,"Bakı şəhəri, Binəqədi rayonu, F.Məlikov küçəsi 18a",Araz Market 7 mkr_2,payment_terminal
29,1109,ot-ailevi-market-imishli,0,0,A,0,0,39.86088,48.06326,,,,"İmişli rayonu, M.Əzizbəyov küç. 10",Ailəvi Market,payment_terminal
1,1110,ot-araz-market-7mk-3,0,0,A,0,0,40.42686,49.85000,,,,"Binəqədi ray., 7-ci mkr, S.S. Axundov küç. 3C",Araz Market  7mkr - 3,payment_terminal
1,1111,ot-petek-market,0,0,A,0,0,40.48075,49.98632,,,,"Bakı ş. Elşən Məhərəmli küçəsi, Sovxoz Ramanı",PETEK Market,payment_terminal
1,1112,ot-araz-market-20yanvar-2,0,0,A,0,0,40.42035,49.80950,,,,"Nəsimi ray, Memmed Cefer kuc ev b10,3006 mehelle",Araz Market 20 Yanvar-2,payment_terminal
11,1113,ot-elvin-market,0,0,A,0,0,39.61732,47.65761,,,,"Füzuli, 1 saylı qəsəbə",Elvin Market,payment_terminal
1,1114,ot-araz-market-azadliq2,0,0,A,0,0,40.38521,49.84448,,,,"Bakı şəhəri, Nəsimi rayonu, Vladislav Plotnikov, ev. 103 m. 1",Araz market Azadlıq 2,payment_terminal
62,1115,ot-shirvan-market,0,0,A,0,0,39.94302,48.93161,,,,"Şirvan şəhəri, T.Ələkbərov küç. 1",Şirvan Dəniz Market,payment_terminal
1,1116,ilyas-market-sabirabad,0,0,A,0,0,39.99540,48.47471,,,,"Sabirabad rayonu, Nərimankən kəndi",İlyas Market,payment_terminal
3,1117,ot-eldaroglu-market,0,0,A,0,0,39.97454,47.41987,,,,"Ağcabədi rayonu, Avşar kəndi",Eldaroğlu Market,payment_terminal
1,1118,ot-araz-market-komurcu,0,0,A,0,0,40.38077,49.83456,,,,"Bakı şəhəri, Nəsimi rayonu, Əlibəy Hüseynzadə küçəsi 84","Araz Market, Kömürçü (Ə.Hüseynzadə)",payment_terminal
1,1119,ot-spar1-market,0,0,A,0,0,40.40636,49.81385,,,,"Baki şəhəri, Nəsimi rayonu, Cavadxan küçəsi, 3 MKN, 3005-ci məhəllə",Spar 1,payment_terminal
68,1120,ot-billur-market,0,0,A,0,0,41.63176,46.65070,,,,"Zaqatala şəhəri, Nizami küçəsi 35",Billur Market,payment_terminal
49,1121,ot-eli-market,0,0,A,0,0,39.92289,48.91306,,,,"Saatlı rayonu, Sarıcalar kəndi",Əli Market,payment_terminal
1,1122,ot-favorit-inqlab,0,0,A,0,0,40.40177,49.84077,,,,"Bakı şəhəri, Nərimanov rayonu M.Əlizadə küçəsi, 917-ci məhəllə, ev 1",Favorit Inqilab,payment_terminal
50,1123,ot-elsen-market,0,0,A,0,0,39.96365,48.84802,,,,"Sabirabad rayonu, Qaragüney kəndi",Elşən market,payment_terminal
59,1124,ot-anar-market,0,0,A,0,0,41.28095,47.01667,,,,"Şəki şəhəri, Aşağı Göynük kəndi",Anar Market,payment_terminal
1,1125,ot-spar-market-genclik,0,0,A,0,0,40.39044,49.84751,,,,"Bakı şəhəri, Nərimanov rayonu, 865 - ci məhəllə, Koroğlu Rəhimov küçəsi 22C","Spar Market, Genclik",payment_terminal
58,1126,ot-fayton-market,0,0,A,0,0,40.63202,48.63681,,,,"Şamaxı şəhəri, H.Əliyev pr. 127",Fayton Market,payment_terminal
1,1127,ot-araz-market-nerimanov4,0,0,A,0,0,40.40213,49.87913,,,,"Nəriman Nərimanov rayonu, Ə.Əliyev küçəsi, 26-cı məhəllə",Araz Market Nerimanov-4,payment_terminal
1,1128,ot-araz-market-nerimanov-saf,0,0,A,0,0,40.40212,49.87422,,,,"Nərimanov r/n 1936 cı mehelle, Aga Neymetulla",Araz Market Nerimanov-Saf,payment_terminal
22,1129,ot-xl-market,0,0,A,0,0,40.63562,47.75871,,,,"Göyçay rayonu, Bərgüşad yolu",XL market,payment_terminal
7,1130,ot-buta-market,0,0,A,0,0,40.58113,48.39515,,,,"Ağsu rayonu, Bakı-Qazax yolu, 152-ci km",Buta market,payment_terminal
2,1131,ot-araz-market-xirdalan4,0,0,A,0,0,40.45864,49.71426,,,,"Abşeron rayonu, Xırdalan şəhəri, M.Hüseynzadə küçəsi,1-ci mərtəbə",Araz Market Xırdalan-4,payment_terminal
2,1132,ot-araz-market-masazir2,0,0,A,0,0,40.47909,49.75212,,,,"Abseron rayonu, Masazır qəsəbəsi, Əliağa Vahid küç.",Araz Market Masazır 2,payment_terminal
2,1133,araz-market-saray2,0,0,A,0,0,40.53273,49.70802,,,,"Abşeron rayonu, Saray qəsəbəsi, Məhəmməd Əsədov küç, 68-ci binanın 1-ci mərtəbəsi",Araz Market Saray-2,payment_terminal
1,1134,ot-araz-market-mehdiabad2,0,0,A,0,0,40.48843,49.85579,,,,"Abşeron rayonu, Mehdiabad qəsəbəsi, 28 may küçəsi",Araz Market Mehdiabad-2,payment_terminal
2,1135,ot-araz-market-mehdiabad,0,0,A,0,0,40.49639,49.85707,,,,Abşeron rayonu Mehdiabad qəsəbəsi Fatmai şossesi,Araz Market Mehdiabad,payment_terminal
2,1136,ot-favorit-novxani,0,0,A,0,0,40.49658,49.85820,,,,"Abşeron rayonu, Novxanı kəndi",Favorit Novxani,payment_terminal
2,1137,ot-araz-market-masazir3,0,0,A,0,0,40.45761,49.76111,,,,"Abşeron rayonu, Masazır kəndi",Araz Market Masazır - 3,payment_terminal
32,1138,ot-asi-market,0,0,A,0,0,40.33650,48.15119,,,,"Kürdəmir rayonu, Bakı pr. 33",ASI market,payment_terminal
59,1139,ot-ekonom-market,0,0,A,0,0,41.19933,47.17816,,,,"Şəki şəhəri, M.Ə.Rəsulzadə küç. 180",Ekonom Market,payment_terminal
50,1140,ot-axtaci-market,0,0,A,0,0,40.00766,48.71620,,,,"Sabirabad rayonu, Axtacı-Muğan kəndi",Axtacı market,payment_terminal
60,1141,ot-zumrud-market,0,0,A,0,0,40.87801,46.02861,,,,"Şəmkir şəhəri, Səməd Vurğun küç. 1",Zumrud Market,payment_terminal
20,1142,ot-xanim-market,0,0,A,0,0,40.68639,46.38757,,,,"Gəncə şəhəri, Şah İsmayıl Xətai pr.",Xanim market,payment_terminal
6,1143,ot-agstafa-market,0,0,A,0,0,41.11454,45.44732,,,,"Ağstafa rayonu, Rafiq Əlicanov küç. 5",Kəsəmən Market ,payment_terminal
18,1144,ot-bolmart-market-xocavend,0,0,A,0,0,39.51424,47.03969,,,,Xocavənd rayonu,Bolmart Hadrut flialı,payment_terminal
45,1145,ot-cahan-alis-veris-merkezi,0,0,A,0,0,39.19513,45.42963,,,,Naxçıvan şəh. Ə.Əliyev küç. 2,Cahan Alış-Veriş Mərkəzi MMC,payment_terminal
45,1146,ot-cahan-mmc-ticaret-merkezi,0,0,A,0,0,39.20627,45.42477,,,,Naxçıvan Şəh. Ə.Əliyev kç.10,Cahan MMC Ticarət Mərkəzi,payment_terminal
45,1147,ot-park-avm,0,0,A,0,0,39.20893,45.40637,,,,"Naxçıvan şəhəri, Nizami küçəsi 27",PARK AVM,payment_terminal
9,1148,ot-meiset-evi-market,0,0,A,0,0,39.12048,45.46766,,,,"Naxçıvan MR, Babək rayonu, Nehrəm kəndi","Məişət Evi, Market",payment_terminal
9,1149,ot-babek-belediyye-binasi,0,0,A,0,0,39.15841,45.44542,,,,"Naxçıvan MR, Babək şəhəri, H.Əliyev pr.",Babək Bələdiyyənin binası,payment_terminal
9,1150,ot-cehri-xidmet-merkezi,0,0,A,0,0,39.35783,45.40889,,,,"Naxçıvan MR, Babək rayonu, Cəhri qəsəbəsi",Cəhri Xidmət Mərkəzi,payment_terminal
16,1151,ot-rabite-idaresi,0,0,A,0,0,38.95577,45.62857,,,,"Naxçıvan MR, Culfa şəhəri, Təbriz küç. 1",Culfa Rabitə İdarəsi,payment_terminal
48,1152,ot-ticaret-merkezi-market,0,0,A,0,0,38.90547,46.01939,,,,"Naxçıvan MR, Ordubad şəhəri, H.Əliyev prospekti","Ticarət mərkəzi, Market",payment_terminal
31,1153,ot-qivraq-qesebesi-erzaq-magazasi,0,0,A,0,0,39.40117,45.11144,,,,"Naxçıvan MR, Kəngərli rayonu, Qıvraq qəsəbəsi",Ərzaq Mağazası,payment_terminal
61,1154,ot-iyt-tedrisi-merkezi,0,0,A,0,0,39.55713,44.98519,,,,"Naxçıvan MR, Şərur şəhəri, H.Əliyev prospekti",İnternet və Yeni Texnologiyaların Tədrisi Mərkəzi,payment_terminal
53,1155,ot-sederek-rabite-evi,0,0,A,0,0,39.70475,44.88303,,,,"Naxçıvan MR, Sədərək rayonu, Sədərək kəndi",Rabitə evi,payment_terminal
57,1156,ot-sahbuz-erzaq-magazasi,0,0,A,0,0,39.40547,45.56644,,,,"Naxçıvan MR, Şahbuz şəhəri, H.Əliyev prospekti",Ərzaq mağazası,payment_terminal
20,1182,maxi-market,0,0,A,0,0,40.705444,46.366709,,,,"Maxi Market, Heydər Əliyev prospekdi",Maxi Market,payment_terminal
1,1193,araz-market-sovetsky-ot,0,0,A,0,0,40.45662,49.74158,,,,"Araz Market, M.Huseynzade küçəsi, 1-ci mertebe","Araz Market, Sovetski",payment_terminal
1,1194,araz-market-bina-ot,0,0,A,0,0,40.45036,50.08906,,,,"Araz Market, Əzizbəyov rayonu, Binə qəsəbəsi Ə.İsazadə küçəsi 5","Araz Market, Binə",payment_terminal
1,1195,araz-market-bileceri-ot,0,0,A,0,0,40.43625,49.80342,,,,"Araz Market, Binəqədi rayonu, Biləcəri qəsəbəsi, Mehdi Hüseynzadə 17","Araz Market, Biləcəri",payment_terminal
1,1196,araz-market-zabrat-mashtaga-ot,0,0,A,0,0,40.50661,49.97543,,,,"Araz Market, Sabuncu rayonu Maştağa qəsəbəsi, Zabrat-Maştağa şossesi","Araz Market, Zabrat-Maştağa",payment_terminal
1,1197,araz-market-buzovna,0,0,A,0,0,40.51667,50.10243,,,,"Araz Market, Buzovna qəsəbəsi Heydər Eyvazov küçəsi 47","Araz Market, Buzovna",payment_terminal
1,1198,araz-market-saatli,0,0,A,0,0,40.37455,49.81163,,,,"Araz Market, Yasamal Rayonu, Firuddin Ağayev küçəsi 9 ünvani","Araz Market, Saatlı",payment_terminal
2,1199,araz-market-saray,0,0,A,0,0,40.52429,49.68744,,,,"Araz Market,  Saray qəsəbəsi","Araz Market, Saray",payment_terminal
2,1200,araz-market-jayranbatan,0,0,A,0,0,40.54368,49.66297,,,,"Araz Market, Ceyranbatan qəsəbəsi, Bakı-Sumqayıt şossesi","Araz Market, Ceyranbatan",payment_terminal
1,1201,araz-market-hovsan,0,0,A,0,0,40.36069,50.08003,,,,"Araz Market,  Suraxanı rayonu, Hövsan qəsəbəsi, İ.Əhlimanov küçəsi 225","Araz Market, Hövsan",payment_terminal
55,1202,araz-market-9-microcosm,0,0,A,0,0,40.5702,49.68913,,,,"Araz Market, 9 mikrorayon, Üzəyir Hacibəyov küçəsi 25C","Araz Market, 9-cu mikrorayon",payment_terminal
2,1203,araz-market-saray-2,0,0,A,0,0,40.47901,49.75255,,,,"Araz Market, Saray qesebesi,  Mehemmed Esedov küçəsi 68ci binanin1ci mertebesi","Araz Market, Saray 2",payment_terminal
1,1204,araz-market-nasimi,0,0,A,0,0,40.40128,49.83154,,,,"Araz Market, Nəsimi rayonu, Mərdanov qardaşlari 137","Araz Market, Nəsimi",payment_terminal
1,1205,araz-market-yasamal-2,0,0,A,0,0,40.22518,49.57233,,,,"Araz Market, Sahil qəsəbə, Məhərrəm Seyidov küçəsi 15","Araz Market, Yasamal 2",payment_terminal
1,1206,zeytun-market-jafar-jabbarli,0,0,A,0,0,40.38606,49.84808,,,,"Zeytun Market, Nəsimi rayonu, Ceyhun Hacıbəyli 37A","Zeytun Market, Cəfər Cabbarlı",payment_terminal
1,1207,azercell-plaza,0,0,A,0,0,40.40007,49.80954,,,,"Azərcell Plaza,  Yasamal rayonu, Tbilisi prospekti 149",Azərcell Plaza,payment_terminal
1,1208,favorit-khazar,0,0,A,0,0,40.3811,49.96518,,,,"Favorit Xəzər,  Gəncə prospekti, 2942 saylı məhəllə, korpus 3",Favorit Xəzər,payment_terminal
1,1209,favorit-neapol,0,0,A,0,0,40.38365,49.9666,,,,"Favorit Neapol, General Şıxlınski küçəsi 55",Favorit Neapol,payment_terminal
55,1210,gayali-market-xirdalan,0,0,A,0,0,40.61906,49.56253,,,,"Qayalı market, H.Z.Tağıyev qəsəbəsi","Qayalı Market, Xırdalan",payment_terminal
55,1211,gayali-market-kubinka,0,0,A,0,0,40.56999,49.67535,,,,"Qayalı Market, 11-ci mikrorayon, Ş.Bədəlbəyli küçəsi","Qayalı Market, Kubinka",payment_terminal
55,1212,gayali-market-zabrat,0,0,A,0,0,40.56854,49.69181,,,,"Qayalı Market, 10-cu mikrorayon, Babək küçəsi","Qayali market, Zabrat",payment_terminal
50,1213,ulacali-market,0,0,A,0,0,40.07268,48.59251,,,,"Ulacalı market, Ulacalı kendi",Ulacalı Market,payment_terminal
1,1214,araz-market-yasamal-3,0,0,A,0,0,40.36661,49.81684,,,,"Araz Market, Yasamal rayonu, Hüseyn Cavid prospekti 17","Araz Market, Yasamal 3",payment_terminal
24,1215,hajigabul-talish,0,0,A,0,0,40.03886,48.92142,,,,"Haciqabul rayon, Talış kəndi",Hacıqabul Talış T.M,payment_terminal
1,1216,araz-market-yeni-yasamal,0,0,A,0,0,40.38198,49.80717,,,,"Araz Market, Yasamal rayonu, Yeni Yasamal-1 küçəsi 14","Araz Market, Yeni Yasamal",payment_terminal
59,1217,shaki-store-market,0,0,A,0,0,41.19804,47.17607,,,,"Şəki Store Market, M.Ə.Rəsulzadə küçəsi 166B",Şəki Store market,payment_terminal
1,1218,araz-market-yasamal-4,0,0,A,0,0,40.38023,49.80725,,,,"Araz Market, Yasamal rayonu, M.Seyidov küçəsi 23","Araz Market, Yasamal 4",payment_terminal
50,1219,oba-market-nizami,0,0,A,0,0,40.01952,48.47804,,,,"Oba market, Nizami kəndi","Oba Market, Nizami",payment_terminal
1,1220,araz-market-minkachevir,0,0,A,0,0,40.37733,49.81053,,,,"Araz Market, Şəhriyar küçəsi 6 nomrəli binanin 1 ci mərtəbəsi","Araz Market, Mingəçevir",payment_terminal
1,1221,araz-market-sovetsky-2,0,0,A,0,0,40.37793,49.83313,,,,"Araz Market,  422-ci məhəllə Mirzə İbrahimov küçəsi 53, 1-ci mərtəbə","Araz Market, Sovetski 2",payment_terminal
1,1222,araz-market-yasamal-5,0,0,A,0,0,40.38592,49.80859,,,,"Araz Market, Yasamal rayonu, H.Zərdabi prospekti, 593-cü məhəllə","Araz Market, Yasamal 5",payment_terminal
1,1230,favorit-market-salyan,0,0,A,0,0,40.32894,49.81885,,,,"Favorit Market, Səbail rayonu, Salyan şössesi 20-ci ünvan","Favorit market, Salyan",payment_terminal
1,1231,araz-market-badamdar,0,0,A,0,0,40.33899,49.80744,,,,"Araz Market,  Badamdar qəsəbəsi, T.Memmedov 3 ve 5 unvaninda yerlesen 18 mertebeli binanin 1ci mertebesi","Araz Market, Badamdar",payment_terminal
1,1232,araz-market-badamdar-2,0,0,A,0,0,40.35114,49.81062,,,,"Araz Market, Səbail Rayonu, Badamdar qəsəbəsi, 1 yaşayış massivi","Araz Market, Badamdar 2",payment_terminal
1,1233,araz-market-sulutepe,0,0,A,0,0,40.43297,49.77141,,,,"Araz Market, Binəqədi rayonu, Sulutəpə qəsəbəsi, rayonu Allahverdiyev küçəsi, ev 25F   ","Araz Market, Sulutəpə",payment_terminal
20,1234,sakit-market-gulustan,0,0,A,0,0,40.76785,46.40851,,,,"Sakit Market, Gülüstan qəsəbəsi, 37 saylı Binanın cənub küçəsi","Sakit Market, Gülüstan",payment_terminal
1,1235,favorit-nasimi,0,0,A,0,0,40.43632,49.84574,,,,"Favorit, Binəqədi rayonu, Azadlıq prospekti 157","Favorit, Nəsimi",payment_terminal
1,1236,spar-market-2,0,0,A,0,0,40.43628,49.84424,,,,"Spar Market, Binəqədi rayonu M.Ə.Rəsulzadə qəsəbəsi Binəqədi şossesi 195 E",Spar market 2,payment_terminal
1,1237,araz-market-bineqedi,0,0,A,0,0,40.42639,49.83223,,,,"Araz Market,  Binəqədi rayonu, 6 - cı mikrorayon, İsrafil Həşimov küçəsi, ev 1a","Araz Market, Binəqədi",payment_terminal
1,1238,araz-market-2-microdistrict,0,0,A,0,0,40.42034,49.80946,,,,"Araz Market, Binəqədi rayonu, 9 mikrorayon, H.Seyidzadə küçəsi 38","Araz Market, 2-ci mikrorayon",payment_terminal
1,1239,araz-market-bineqedi-2,0,0,A,0,0,40.46602,49.82926,,,,"Araz Market, Binəqədi rayonu, Binəqədi ŞTQ 2-ci mədən","Araz Market, Binəqədi",payment_terminal
45,1240,danyeri-avm,0,0,A,0,0,39.21264,45.42209,,,,"Danyeri AVM, Ə.Əliyev küçəsi 46",Danyeri AVM,payment_terminal
45,1241,park-avm,0,0,A,0,0,39.20893,45.40637,,,,"Park AVM, Nizami küçəsi 27",Park AVM,payment_terminal
45,1242,cahan-mmc,0,0,A,0,0,39.20627,45.42477,,,,"Cahan MMC Ticarət Mərkəzi, Ə. Əliyev küçəsi 10",Cahan MMC Ticarət Mərkəzi,payment_terminal
45,1243,cahan-alish-verish,0,0,A,0,0,39.19513,45.42963,,,,"Cahan, Ə.Əliyev küçəsi. 2",Cahan - Alış Veriş Mərkəzi MMC,payment_terminal
1,1244,bolmart-sumqayit,0,0,A,0,0,40.5221,49.68911,,,,"Bolmart, Sumqayıt yolu, Saray postu","Bolmart, Sumqayıt",payment_terminal
1,1245,favorit-market-binagadi,0,0,A,0,0,40.46602,49.82931,,,,"Favorit Market, Binəqədi rayonu, Gülməmməd Ramazanov küçəsi","Favorit Market, Binəqədi",payment_terminal
68,1246,araz-market-aliabad,0,0,A,0,0,41.48846,46.62327,,,,"Araz Market, Əliabad qəsəbəsi","Araz Market, Əliabad qəsəbəsi",payment_terminal
1,1247,araz-market-7-mikrorayon,0,0,A,0,0,40.43319,49.85102,,,,"Araz Market, Binəqədi rayonu,7 mikrorayon, 3123-cü məhəllə","Araz Market, 7ci mikrorayon",payment_terminal
1,1248,araz-market-7-mikrorayon-2,0,0,A,0,0,40.42901,49.85392,,,,"Araz Market, Binəqədi rayonu, F.Məlikov küçəsi 18a","Araz Market, 7ci mikrorayon 2",payment_terminal
29,1249,ailevi-market,0,0,A,0,0,39.86088,48.06326,,,,"Ailəvi market,  M. Əzizbəyov küçəsi 10",Ailəvi market,payment_terminal
1,1250,araz-market-7-mikrorayon-3,0,0,A,0,0,40.42686,49.85,,,,"Araz Market, 7-ci mikrorayon, S.S.Axundov küçəsi. 3C","Araz Market, 7ci mikrorayon 3",payment_terminal
1,1251,araz-market-8-microrayon,0,0,A,0,0,40.42489,49.84294,,,,"Araz Market, 8-ci mikrorayon İbrahimpaşa Dadaşov küçəsi 91","Araz Market, 8ci mikrorayon",payment_terminal
1,1252,araz-market-1-microdistrict,0,0,A,0,0,40.42035,49.8095,,,,"Araz Market, Nəsimi rayonu, Memmed Cefer küçəsi","Araz Market, 1ci mikrorayon",payment_terminal
1,1253,araz-market-jafar-jabbarli,0,0,A,0,0,40.38521,49.84448,,,,"Araz Market, Nəsimi rayonu, Vladislav Plotnikov küçəsi","Araz Market, Cəfər Cabbarov",payment_terminal
1,1254,grandmart,0,0,A,0,0,40.37631,49.84188,,,,"GrandMart, Səməd Vurgun 34 küçəsi",GrandMart,payment_terminal
1,1255,avtomart,0,0,A,0,0,40.37716,49.85501,,,,"AvroMart, Nəsimi rayonu, Nizami küçəsi 129e",AvroMart,payment_terminal
1,1256,bolmart-super-market,0,0,A,0,0,40.42128,49.81493,,,,"Bolmart Super Market, Binəqədi rayonu M.Cəlal küçəsi 314",Bolmart Super Market,payment_terminal
62,1257,deniz-market,0,0,A,0,0,39.94302,48.93161,,,,"Dəniz Market, T.Ələkbərov 1",Dəniz Market,payment_terminal
1,1258,araz-market-nizami,0,0,A,0,0,40.38077,49.83456,,,,"Araz Market, Nəsimi rayonu, Əlibəy Hüseynzadə küçəsi 84","Araz Market, Nizami",payment_terminal
1,1259,spar-nasimi,0,0,A,0,0,40.37489,49.84148,,,,"Spar, Nəsimi rayonu, Səməd Vurğun küçəsi 19","Spar, Nəsimi",payment_terminal
1,1260,spar-3-microrayon,0,0,A,0,0,40.40636,49.81385,,,,"Spar, Nəsimi rayonu Cavadxan küçəsi 3","Spar, 3cü mikrorayon",payment_terminal
68,1261,billur-market,0,0,A,0,0,41.63176,46.6507,,,,"Billur Market, Nizami küçəsi 35",Billur Market,payment_terminal
1,1262,favorit-market-alizade,0,0,A,0,0,40.40177,49.84077,,,,"Favorit Market, Nərimanov rayonu M.Əlizadə küçəsi 917 - ci məhəllə","Favorit Market, N.Nərimanov",payment_terminal
50,1263,elshan-market,0,0,A,0,0,39.96365,48.84802,,,,"Elşən market, Qaragüney kəndi","Elşən market, Qaragüney kəndi",payment_terminal
1,1264,spar-ganclik,0,0,A,0,0,40.39044,49.84751,,,,"Spar, Nərimanov rayonu, 865 - ci məhəllə, Koroğlu Rəhimov küçəsi 22C","Spar, Gənclik",payment_terminal
1,1265,araz-market-shamaxi,0,0,A,0,0,40.40213,49.87913,,,,"Araz Market, Nəriman Nərimanov rayonu Ə.Əliyev küçəsi 26-cı məhəllə","Araz Market, Şamaxı",payment_terminal
1,1266,araz-market-nariman-narimanov,0,0,A,0,0,40.40212,49.87422,,,,"Araz Market, Nərimanov rayonu 1936-cı məhəllə Ağa Neymətulla","Araz Market, Nəriman Nərimanov",payment_terminal
22,1267,xl-market,0,0,A,0,0,40.63562,47.75871,,,,"XL Market, Bərgüşad yolu",XL Market,payment_terminal
1,1268,grandmart-supermarket-neftchilar,0,0,A,0,0,40.41417,49.93985,,,,"GrandMart Supermarket, Qara Qarayev prospekti 46","GrandMart Supermarket, Neftçilər",payment_terminal
1,1269,grandmart-zabrat,0,0,A,0,0,40.49136,49.95456,,,,"GrandMart, Zabrat qəsəbəsi, Zabrat dairəsi","GrandMart, Zabrat",payment_terminal
1,1270,bolmart-neftchilar,0,0,A,0,0,40.40836,49.9387,,,,"Bolmart, Rüstəm Rüstəmov küçəsi 23","Bolmart, Neftçilər",payment_terminal
1,1271,bolmart-zabrat,0,0,A,0,0,40.49166,49.95307,,,,"Bolmart, Zabrat qəsəbəsi, Montin küçəsi 21","Bolmart, Zabrat",payment_terminal
1,1272,grandmart-yeni-yasamal,0,0,A,0,0,40.37585,49.92769,,,,"GrandMart, Bakı rayonu İlqar Abbasov küçəsi 7a","Grandmart, Yeni Yasamal",payment_terminal
55,1273,grandmart-kubinka,0,0,A,0,0,40.57922,49.69366,,,,"GrandMart, S.Vurğun küçəsi 6 .6 mikrorayon","Grandmart, Kubinka",payment_terminal
1,1274,araz-xalqlar-dostlugu,0,0,A,0,0,40.40212,49.95533,,,,"Araz, Nizami rayonu, Bəhruz Nuriyev ev. 32, 2-ci blok 1 ci Mərtəbə","Araz, Xalqlar Dostluğu",payment_terminal
1,1275,grandmart-bakixanov,0,0,A,0,0,40.42752,49.93948,,,,"GrandMart, B. Bünyadov küçəsi 134","Grandmart, Bakixanov",payment_terminal
1,1276,grandmart-2,0,0,A,0,0,40.38358,49.81011,,,,"GrandMart, Yasamal rayonu, 589-cu məhəllə H. Məcidov küçəsi.",GrandMart 2,payment_terminal
1,1277,bolmart-20-yanvar,0,0,A,0,0,40.39866,49.81619,,,,"Bolmart, Yasamal rayonu, A. Salamzadə küçəsi 1058","Bolmart, 20 Yanvar",payment_terminal
1,1278,bolmart-kubinka,0,0,A,0,0,40.38371,49.83799,,,,"Bolmart, Nəsimi rayonu, S.Vurğun küçəsi 75","Bolmart, Kubinka",payment_terminal
1,1279,bolmart-mehdiabad,0,0,A,0,0,40.50096,49.85618,,,,"Bolmart, Abşeron rayonu, Mehdiabad qəsəbəsi","Bolmart, Mehdiabad qəsəbəsi",payment_terminal
1,1280,myshops,0,0,A,0,0,40.3785,49.84793,,,,"Myshops, Azadlıq prospekti 18",Myshops,payment_terminal
1,1281,mini-market,0,0,A,0,0,40.36823,49.96003,,,,"Mini Market, Gəncə prospekti 20A",Mini Market,payment_terminal
1,1282,stimul-hospital,0,0,A,0,0,40.43384,49.95631,,,,"Stimul Hospital, Bakıxanov qəsəbəsi, Yavər Əliyev küçəsi. 26",Stimul Hospital,payment_terminal
1,1283,tayga-market-binagadi,0,0,A,0,0,40.43179,49.85184,,,,"Tayga Market, Binəqədi şossesi 308 c","Tayga Market, Binəqədi",payment_terminal
1,1284,tayga-market,0,0,A,0,0,40.41603,49.84957,,,,"Tayga Market, Dərnəgül qəsəbəsi",Tayga Market,payment_terminal
1,1285,nursel-market,0,0,A,0,0,40.41622,49.84114,,,,"Nursel Market, Ə.Naxçıvani küçəsi 18/A",Nursel Market,payment_terminal
1,1286,araz-binagadi,0,0,A,0,0,40.42574,49.82926,,,,"Araz, Binəqədi rayonu, Svetlana Məmmədova küçəsi 209F","Araz, Binəqədi",payment_terminal
38,1287,sadko-market,0,0,A,0,0,41.42675,48.43096,,,,"Sadko Market, Zərifə Əliyeva 13 ",Sadko Market,payment_terminal
1,1288,araz-yeni-guneshli,0,0,A,0,0,40.369,49.97575,,,,"Araz, Suraxanı rayonu, Yeni Günəşli qəsəbəsi","Araz, Yeni Günəşli",payment_terminal
1,1289,araz-jafar-jabbarli,0,0,A,0,0,40.38894,49.85726,,,,"Araz, Nərimanov rayonu, Qarabağ küçəsi      ","Araz, Cəfər Cabbarlı",payment_terminal
1,1290,araz-bakixanov,0,0,A,0,0,40.41339,49.94951,,,,"Araz, Şərifli küçəsi 25","Araz, Bakıxanov",payment_terminal
26,1291,araz-aaaf-park,0,0,A,0,0,40.45726,49.723,,,,"Araz, AAAF Park yaşayış kompleksi","Araz, AAAF Park",payment_terminal
1,1292,araz-yeni-yasamal,0,0,A,0,0,40.4021,49.87407,,,,"Araz, Nərimanov Rayonu, Nazim Hacıyev küçəsi ilə Faiq Yusifov küçəsiələrinin kəsişməsi, 1950 ci məhəllə","Araz, Yeni Yasamal",payment_terminal
1,1293,araz-yasamal,0,0,A,0,0,40.38211,49.80426,,,,"Araz, Şərfizadə küçəsi","Araz, Yasamal",payment_terminal
56,1295,gayali-market,0,0,A,0,0,41.20162,48.98153,,,,"Qayali Market, M.Ə.Rəsulzadə 57 A küçəsi ",Qayali Market,payment_terminal
2,1296,araz-market-fatma,0,0,A,0,0,40.49639,49.85707,,,,"Araz Market, Mehdiabad qəsəbəsi Fatmai şossesi","Araz Market, Fatmai şossesi",payment_terminal
59,1297,ekonom-market,0,0,A,0,0,41.19933,47.17816,,,,"Ekonom Market, M.Ə.Rəsulzadə küçəsi 180",Ekonom Market,payment_terminal
20,1298,xanimin-marketi,0,0,A,0,0,40.68639,46.38757,,,,"Xanımın Marketi, Şah İsmayıl Bakı prospekti",Xanımın Marketi,payment_terminal
1,1299,araz-market-baki-2,0,0,A,0,0,40.38371,49.8613,,,,"Araz Market, Bakı rayonu, Həsən Salmani küçəsi 17","Araz Market, Bakı 2",payment_terminal
1,1300,araz-market-baki-6,0,0,A,0,0,40.3763,49.96133,,,,"Araz Market, Bakı rayonu, N.Tusi 19   ","Araz Market, Bakı 6",payment_terminal
1,1301,araz-market-zig,0,0,A,0,0,40.40524,49.9549,,,,"Araz Market, Bakı rayonu, C.Naxçıvanski küçəsi 66 A, giriş 1 və 2","Araz Market, Zığ",payment_terminal
2,1302,araz-market-masazir-2,0,0,A,0,0,40.47909,49.75212,,,,"Araz Market, Masazir qəsəbəsi, Əlağa Vahid küçəsi","Araz Market, Masazır 2",payment_terminal
2,1303,araz-market-guzdek,0,0,A,0,0,40.45864,49.71426,,,,"Araz Market, M.Huseynzade küçəsi ,1-ci mertebe","Araz Market, Güzdək",payment_terminal
2,1304,araz-market-saray-3,0,0,A,0,0,40.53273,49.70802,,,,"Araz Market, Saray qesebesi,  Mehemmed Esedov küçəsi 68ci binanin1ci mertebesi","Araz Market, Saray 3",payment_terminal
2,1305,araz-market-28-may,0,0,A,0,0,40.48843,49.85579,,,,"Araz Market, Mehdiabad qəsəbəsi, 28 may küçəsi","Araz Market, 28 may",payment_terminal
2,1306,favorit-novxani,0,0,A,0,0,40.49658,49.8582,,,,"Favorit, Novxanı kəndi","Favorit, Novxani kəndi",payment_terminal
2,1307,araz-market-masazir-kendi,0,0,A,0,0,40.45761,49.76111,,,,"Araz Market, Masazır kəndi","Araz Market, Masazır kəndi",payment_terminal
20,1308,bazarstore,0,0,A,0,0,40.68202,46.36307,,,,"BazarStore, N. Nərimanov prospekti",BazarStore,payment_terminal
1,1309,araz-market-baki,0,0,A,0,0,40.36267,49.96146,,,,"Araz Market, Bakı rayonu, Gəncə prospekti 2942 ""Q"" məhəllə","Araz Market, Bakı",payment_terminal
1,1310,araz-market-baki-3,0,0,A,0,0,40.39408,49.96106,,,,"Araz Market, Bakı rayonu, Məhəmməd Hadi küçəsi 51M","Araz Market, Bakı 3",payment_terminal
1,1311,araz-market-baki-4,0,0,A,0,0,40.38845,49.87307,,,,"Araz Market, Bakı rayonu, Babək prospekti, 10 D","Araz Market, Bakı 4",payment_terminal
1,1312,araz-market-baki-5,0,0,A,0,0,40.3626,49.96091,,,,"Araz Market, Bakı rayon Əhmədli qəsəbəsi Gəncə prospekti","Araz Market, Bakı 5",payment_terminal
41,1313,balli-market,0,0,A,0,0,38.702708,48.816702,,,,"Ballı Market, Şıxəkəran kəndi","Ballı Market, Şıxəkəran kəndi",payment_terminal
24,1314,halal-market,0,0,A,0,0,40.04443,48.93712,,,,"Halal Market, H.Həmidov küçəsi",Halal Market,payment_terminal
25,1315,ekomart-sahil,0,0,A,0,0,41.45965,48.78827,,,,"Ekomart, H.Z.Tağıyev küçəsi",Ekomart,payment_terminal
1,1316,araz-market-gara-garayev,0,0,A,0,0,40.41971,49.93176,,,,"Araz Market, Bakı rayonu, Tofiq Abbasov küçəsi 38, bina 7","Araz Market, Qara Qarayev",payment_terminal
34,1317,al-market,0,0,A,0,0,41.09657,45.35235,,,,"Al Market, Heydər Əliyev küçəsi 171",Al Market,payment_terminal
15,1318,oba-market,0,0,A,0,0,39.20531,48.51054,,,,"Oba Market, M. Hüseyn küçəsi yeni yaşayış massivi",Oba Market,payment_terminal
51,1319,ay-ishigi-market,0,0,A,0,0,39.58093,48.97028,,,,"Ay İşiği Market, Astara yolu 20 yanvar küçəsi",Ay İşiği Market,payment_terminal
13,1320,aran-market,0,0,A,0,0,39.46178,48.56081,,,,"Aran Market, H. Əliyev küçəsi 42",Aran Market,payment_terminal
8,1321,kijaba,0,0,A,0,0,38.53287,48.80613,,,,"Kijəbə TM, Kijəbə qəsəbəsi","Kijəbə TM, Kijəbə qəsəbəsi",payment_terminal
67,1322,xaldan-kandi-market,0,0,A,0,0,40.71416,47.22855,,,,"Xaldan Kəndi Market, Xaldan qəsəbəsi","Xaldan Kəndi Market, Xaldan qəsəbəsi",payment_terminal
43,1323,alinshaat-market,0,0,A,0,0,40.77274,47.04847,,,,"Əliinşaat Market, AZQRES qəsəbəsi, Naxçıvan küçəsi",Əliinşaat Market,payment_terminal
64,1324,rahat-market-dondar,0,0,A,0,0,40.99507,45.61771,,,,"Rahat Market, Dondar Quşçu kəndi","Rahat Market, Dondar Quşçu kəndi",payment_terminal
64,1325,ailam-market,0,0,A,0,0,40.99103,45.61577,,,,"Ailəm Market, Hezi Aslanov küçəsi",Ailəm Market,payment_terminal
64,1326,grand-market-ashagi-oysuzlu,0,0,A,0,0,40.99435,45.61891,,,,"Grand Market, Aşağı Öysüzlü  kəndi","Grand Market, Aşağı Öysüzlü  kəndi",payment_terminal
67,1327,tural-market,0,0,A,0,0,40.61892,47.15164,,,,"Tural Market, Bakı prospekti 76",Tural Market,payment_terminal
63,1328,vasif-market,0,0,A,0,0,40.41797,46.94637,,,,"Vasif Market, Təzəkənd kəndi","Vasif Market, Təzəkənd kəndi",payment_terminal
60,1329,oba-market-zayam,0,0,A,0,0,40.90568,46.18271,,,,"Oba Market, Zəyəm qəsəbəsi","Oba Market, Zəyəm qəsəbəsi",payment_terminal
10,1330,asan,0,0,A,0,0,41.70801,46.42172,,,,"Asan, H. Əliyev prospekti 159",Asan,payment_terminal
41,1331,ay-ishigi,0,0,A,0,0,38.85674,48.74895,,,,"Ay İşığı, Şaqlaser, Şiləvar kəndi","Ay İşığı, Şiləvar kəndi",payment_terminal
21,1332,qala-market,0,0,A,0,0,40.59917,46.78228,,,,"Qala Market, H. Əliyev prospekti 15",Qala Market,payment_terminal
62,1333,moon-store-market,0,0,A,0,0,39.93524,48.90836,,,,"Moon Store Market, G.Şıxbala küçəsi",Moon Store Market,payment_terminal
39,1334,lachin-market,0,0,A,0,0,40.10227,47.53092,,,,"Laçın Market, Taxta Körpü qəsəbəsi","Laçın Market, Taxta Körpü qəsəbəsi",payment_terminal
12,1335,oba-market-hasangaya,0,0,A,0,0,40.34831,46.93566,,,,"Oba Market, Həsənqaya kəndi","Oba Market, Həsənqaya kəndi",payment_terminal
50,1336,qalagayin-dairasi-market,0,0,A,0,0,39.97784,48.46177,,,,"Qalağayın Dairəsi Market, A. Səhhət küçəsi",Qalağayın Dairəsi Market,payment_terminal
62,1337,shirvan-ticaret-markazi,0,0,A,0,0,39.96074,48.94821,,,,"Şirvan Ticarət Mərkəzi, M.Ə.Rəsulzadə prospekti",Şirvan Ticarət Mərkəzi,payment_terminal
55,1338,lyuks-ev,0,0,A,0,0,40.5696,49.6381,,,,"Lyuks Ev, Sülh küçəsi 1",Lyuks Ev,payment_terminal
55,1339,araz-market-koroglu,0,0,A,0,0,40.5705,49.69009,,,,"Araz Market, 9-cu mikrorayon Üzeyir Hacıbəyov və Koroğlu küçələrinin kəsişməsi","Araz Market, Koroğlu prospekti 2",payment_terminal
55,1340,araz-market-koroglu-pr,0,0,A,0,0,40.56722,49.68493,,,,"Araz Market, 41A mehelle, Koroğlu prospekti","Araz Market, Koroğlu prospekti",payment_terminal
1,1341,qala-marke-2,0,0,A,0,0,40.48932,50.1143,,,,"Qala Market, Qala qəsəbəsi","Qala Market, Qala qəsəbəsi",payment_terminal
1,1342,3-sayli-dost-markazi,0,0,A,0,0,40.41922,49.90649,,,,3 saylı Dost Mərkəzi,3 saylı Dost Mərkəzi,payment_terminal
20,1343,oba-market-ganja,0,0,A,0,0,40.66074,46.33915,,,,"Oba Market, Totanlı küçəsi 2 ","Oba Market,Gəncə",payment_terminal
1,1344,araz-market-yeni-suraxani,0,0,A,0,0,40.42747,50.0375,,,,"Araz Market, Yeni Suraxanı qəsəbəsi, 14 İyul küçəsi 24A","Araz Market, Yeni Suraxanı",payment_terminal
1,1345,araz-market-neftchilar,0,0,A,0,0,40.40578,49.9554,,,,"Araz Market, Bakı rayonu, C.Naxçıvanski küçəsi, 90 nömrəli binanın 1-ci mərtəbəsi","Araz Market, Neftçilər",payment_terminal
1,1347,araz-market-8-microrayon-2,0,0,A,0,0,40.40328,49.93859,,,,"Araz Market, Bakı rayonu, Bəkir Çobanzadə küçəsi 216","Araz Market, 8ci mikrorayon-2",payment_terminal
1,1348,2-dost-markazi,0,0,A,0,0,40.48543,50.1751,,,,"2 saylı Dost Mərkəzi, Xəzər rayonu, Şüvəlan qəsəbəsi, A. İldırım küçəsi, 30 b",2 saylı Dost Mərkəzi,payment_terminal
1,1349,1-dost-markazi,0,0,A,0,0,40.37438,49.82035,,,,"1 saylı Dost Mərkəzi, Yasamal rayonu, İ. Qutqaşınlı küçəsi, 86",1 saylı Dost Mərkəzi,payment_terminal
1,1350,araz-market-xalqlar,0,0,A,0,0,40.4101,49.95535,,,,"Araz Market, Bakı rayonu, E.Süleymanov 2566 blok-B, mərtəbə 1","Araz Market, Xalqlar Dostluğu",payment_terminal
1,1351,araz-market-neftchilar-2,0,0,A,0,0,40.41902,49.93396,,,,"Araz Market, Bakı rayonu, Qara Qarayev prospekti 25A","Araz Market, Neftçilər 2",payment_terminal
1,1352,araz-market-neftchilar-3,0,0,A,0,0,40.40555,49.947,,,,"Araz Market, Bakı rayonu, Qara Qarayev prospekti 93L","Araz Market, Neftçilər 3",payment_terminal
1,1353,araz-market-neftchilar-4,0,0,A,0,0,40.41821,49.93285,,,,"Araz Market, Bakı rayonu, Q.Qarayev küçəsi 34/67","Araz Market, Neftçilər 4",payment_terminal
20,1354,bazarstore-zaqatala,0,0,A,0,0,40.68192,46.36255,,,,"BazarStore, Bakı Gəncəvi prospekti","BazarStore, Zaqatala",payment_terminal
1,1355,aran-market-sabunchu,0,0,A,0,0,40.42372,49.969,,,,"Araz Market, Sabunçu rayonu, Nazim İsmayılov prospekti 119 A","Araz Market, Sabunçu",payment_terminal
1,1356,aran-market-neftchilar-5,0,0,A,0,0,40.47697,49.9388,,,,"Araz Market, Sabunçu rayonu, Zabrat qəsəbəsi, Neftçilər küçəsi ev1","Araz Market, Neftçilər 5",payment_terminal
1,1357,araz-market-kurdexani,0,0,A,0,0,40.54758,49.91222,,,,"Araz Market, Sabunçu rayonu, Kurdexani qəsəbəsi","Araz Market, Kurdexani qəsəbəsi",payment_terminal
1,1358,araz-market-yevlax,0,0,A,0,0,40.4605,50.01153,,,,"Araz Market, Suraxanı rayonu,Bülbülə qəsəbəsi, Samir Əliyev küçəsi","Araz Market, Yevlax",payment_terminal
1,1359,araz-market-alicanov,0,0,A,0,0,40.3873,50.02108,,,,"Araz Market, A.Alicanov küçəsi 17","Araz Market, A. Alicanov 17",payment_terminal
1,1360,araz-market-bina-2,0,0,A,0,0,40.44641,50.08923,,,,"Araz Market, Xəzər rayonu, Binə qəsəbəsi, Hövsan Südçülük sovxozuna gedən yolun sağ tərəfi     ","Araz Market, Binə 2",payment_terminal
1,1361,araz-market-buzovna-2,0,0,A,0,0,40.51689,50.10285,,,,"Araz Market, Xəzər Buzovna qəsəbəsi, Buzovna-Maştağa yolunun sağ tərəfi","Araz Market, Buzovna 2",payment_terminal
1,1362,metropark,0,0,A,0,0,40.40485,49.87491,,,,"Metropark, Nərimanov rayonu, Təbriz küçəsi 106",Metropark,payment_terminal
1,1363,targul,0,0,A,0,0,40.41676,49.83913,,,,"Tərgül Ticarət mərkəzi, Binəqədi rayonu, Cavadxan 150",Tərgül Ticarət mərkəzi,payment_terminal
1,1364,shokolad-tover,0,0,A,0,0,40.38143,49.8092,,,,"Şokolad Tover, Yasamal rayonu, Həsən bəy Zərdabi 574",Şokolad Tover,payment_terminal
1,66,rahat-market-zabrat-1001,0,1,A,0,0,40.465749,49.944949,,,,"Bakı şəhəri, Sabunçu rayonu Zabrat ŞTQ Babkək 110H",Rahat Market (Zabrat),cash_in
1,68,caspian-plaza-999,0,1,A,0,0,40.385645,49.828640,,,,"Bakı şəhəri, Cəfər Cabbarlı 44",Caspian Plaza,cash_in
1,69,araz-market-memmedli-qesebesi-994,0,1,A,0,0,40.511484,49.941684,,,,"Bakı şəhəri, Sabunçu rayonu, Məmmədli qəsəbəsi","Araz market, Məmmədli qəsəbəsi",cash_in
1,80,araz-market-sahil-qesebesi-978,0,1,A,0,0,40.225528,49.572345,,,,"Bakı şəhəri, Qaradağ rayonu, Sahil qəsəbəsi, M.Seyidov küçəsi","Araz Market, Sahil qəsəbəsi",cash_in
1,81,heyder-eliyev-merkezi-977,0,1,A,0,0,40.395988,49.867795,,,,"Bakı şəhəri, Heydər Əliyev prospekti 1",Heydər Əliyev Mərkəzi,cash_in
1,91,baki-olimpiya-stadionu-963,0,1,A,0,0,40.430097,49.919536,,,,"Bakı şəhəri, Heydər Əliyev prospekti 323",Bakı Olimpiya stadionu,cash_in
1,110,yeni-lenkeran-hotel-987,0,1,A,0,0,38.760602,48.765233,,,,"Lənkəran şəhəri, Haftoni kəndi",Yeni Lənkəran Hotel,cash_in
1,112,socar-neolit-934,0,1,A,0,0,40.405823,49.921512,,,,"Bakı şəhəri, Nizami rayonu, Oqtay Vəliyev küçəsi",SOCAR Neolit,cash_in
1,113,vip-filial-933,0,1,A,0,0,40.380717,49.841847,,,,"Bakı şəhəri, Nəsimi rayonu, Bül-bül prospekti 60, Gulustan residence",VIP filial,cash_in
1,129,pasha-sigorta-909,0,1,A,0,0,40.358281,49.824010,,,,"Bakı şəhəri, Səbail rayonu, M.Useynov 61",Paşa Sığorta,cash_in
1,132,neftciler-kart-merkezi-filiali-906,0,1,A,0,0,40.411311,49.945867,,,,"Bakı şəhəri, Nizami rayonu, R. Rüstəmov küçəsi, 44D",Neftçilər kart mərkəzi filialı,cash_in
1,152,azerbaycan-dovlet-iqtisad-universiteti-esas-korpus-884,0,1,A,0,0,40.367640,49.832148,,,,"Bakı şəhəri, Səbail rayonu, İstiqlaliyyət küçəsi 61",Azərbaycan Dövlət İqtisad Universiteti - Əsas korpus,cash_in
1,155,baki-logistika-merkezi-absheron-port-878,0,1,A,0,0,40.329477,49.764990,,,,"Qaradağ rayonu, Lökbatan qəsəbəsi",Bakı logistika mərkəzi (Abşeron Port),cash_in
1,159,xarici-diller-universiteti-870,0,1,A,0,0,40.395137,49.860342,,,,"Bakı şəhəri, Nərimanov rayonu, Təbriz küç. 81",Xarici Dillər Universiteti,cash_in
1,177,sabuncu-filiali-128,0,1,A,0,0,40.43260,49.960377,,,,"Sabunçu rayonu, Bаkıхаnov qəsəbəsi, Ə. Ağayev küçəsi 41",Sabunçu filialı,cash_in
1,179,shusha-filiali-126,0,1,A,0,0,40.421931,49.842592,,,,"Bakı şəh Binəqədi rayonu, 8 mkr, İ. Dadaşov küçəsi 3158/3156-cı məhəllə",Şuşa filialı,cash_in
1,180,bineqedi-filiali-125,0,1,A,1,0,40.40979,49.80797,,,,"Nəsimi rayonu, Asif Məhərrəmov küçəsi 174",Binəqədi filialı,cash_in
1,189,nesimi-rayonu-araz-market-821,0,1,A,0,0,40.401168,49.831580,,,,"Nəsimi rayonu, S.Vurğun 134 (Araz Market)","Nəsimi rayonu, Araz Market",cash_in
1,190,azerbaycan-tibb-universiteti-820,0,1,A,0,0,40.395608,49.832849,,,,"Nəsimi rayonu, S.Vurğun 167 (Azərbaycan Tibb Universiteti)",Azərbaycan Tibb Universiteti,cash_in
1,191,bakixanov-filiali-817,0,1,A,0,0,40.4148552,49.9641895,,,,Sabunçu ray. Bakıxanov qəs. S. Qocayev küç. 13,Bakıxanov filialı,cash_in
1,192,xezer-ray-lezzet-shirniyyat-evi-815,0,1,A,0,0,40.487127,50.165159,,,,"Bakı şəh. Xəzər ray., Yesenin küç. 56 (“Ləzzət Cake House”)",Xəzər  ray. lezzet şirniyyat evi,cash_in
1,227,ada-universiteti-941,0,1,A,0,0,40.394598,49.849372,,,,"Nərimanov rayonu, Əhmədbəy Ağaoğlu küçəsi 11",ADA Universiteti,cash_in
1,230,azerbaycan-texniki-universiteti-712,0,1,A,0,0,40.370066,49.815565,,,,"Yasamal rayonu, H. Cavid prospekti 25",Azərbaycan Texniki Universiteti,cash_in
1,238,qara-qarayev-filiali-695,0,1,A,0,0,40.417904,49.934665,,,,"Nizami rayonu, Qara Qarayev prospekti 29",Qara Qarayev filialı,cash_in
1,261,bolmart-nesimi-rayonu-585,0,1,A,0,0,40.384079,49.837819,,,,"Bakı şəhəri, Nəsimi rayonu, Səməd Vurğun küçəsi 75","Bolmart, Nəsimi rayonu",cash_in
1,264,genclik-mall-581,0,1,A,0,0,40.399986,49.852837,,,,"Fətəli Xan Xoyski pr. 38, Gənclik Mall TM-nin -1-ci mərtəbəsi",Gənclik Mall,cash_in
1,268,yasamal-filiali-172,0,1,A,0,0,40.372490,49.817053,,,,"Bakı şəhəri, Yasamal rayonu, Landau küçəsi 6",Yasamal filialı,cash_in
1,275,247-elektron-xidmet-merkezi-n2-147,0,1,A,0,0,40.405086,49.870478,,,,"Nərimanov rayonu, A.Neymətulla küçəsi 54",24/7 Elektron Xidmət Mərkəzi N2,cash_in
1,277,icerisheher-filiali-144,0,1,A,0,0,40.367877,49.828450,,,,"Bakı şəh Səbail rayonu, Bünyad Sərdarov küçəsi 14",İçərişəhər filialı,cash_in
1,278,genclik-filiali-143,0,1,A,0,0,40.401512,49.846882,,,,"Nərimanov rayonu, Həsən Əliyev küçəsi, 889-cu məhəllə, ev 82",Gənclik filialı,cash_in
1,284,qaradag-rayon-filiali-130,0,1,A,0,0,40.322402,49.738154,,,,"Qaradağ rayonu, Lökbatan qəsəbəsi, 28 May küçəsi",Qaradağ rayon filialı,cash_in
1,286,ehmedli-filiali-123,0,1,A,0,0,40.386648,49.956983,,,,"Xətai rayonu, Sarayevo küçəsi, 7Q",Əhmədli filialı,cash_in
1,288,xetai-filiali-120,0,1,A,0,0,40.379852,49.865684,,,,"Xətai rayonu, S.Orucov küçəsi 12",Xətai filialı,cash_in
1,291,araz-market-statistika-komitesi-115,0,1,A,0,0,40.382720,49.822931,,,,"Yasamal rayonu, İnşaatçılar prospekti 31","Araz market, Statistika komitəsi",cash_in
26,404,araz-market-xirdalan-sheh-592,0,1,A,0,0,40.455756,49.740424,,,,"Xırdalan şəh., 28 məhəllə, Mehdi Hüseynzadə küçəsi 7","Araz market, Xırdalan şəh",cash_in
1,409,xezer-filiali-12,0,1,A,0,0,40.486567,50.17039,,,,"Xəzər rayonu, Şüvəlan qəsəbəsi, A.İldırım küçəsi 16",Xəzər filialı,cash_in
1,420,makromart-bakixanov-qes-26,0,1,A,0,0,40.42447,49.959483,,,,"Sabunçu rayonu, Bakıxanov qəs., S.Mehmandarov küçəsi 28","Makromart, Bakıxanov qəs",cash_in
1,429,hobby-market-ehmedli-46,1,1,A,0,0,40.378834,49.948193,,,,"Xətai rayonu, Aşıq Ələsgər küçəsi 2","Hobby market, Əhmədli",cash_in
1,455,premium-market-nesimi-rayonu-80,0,1,A,0,0,40.393611,49.839563,,,,"Nəsimi rayonu, Süleyman Rüstəm küçəsi 61","Premium market, Nəsimi rayonu",cash_in
1,461,28-mall-1-ci-mert-90,0,1,A,0,0,40.379286,49.846784,,,,"Nəsimi rayonu, Füzuli küçəsi ilə Azadlıq prospektinin kəsişməsi","28 Mall, 1-ci mərt.",cash_in
1,469,4-sayli-asan-xidmet-merkezi-106,0,1,A,0,0,40.421448,49.969298,,,,"Sabunçu rayonu, Bakıxanov qəsəbəsi, Sülh küçəsi 8 A",4 saylı ASAN xidmət mərkəzi,cash_in
26,482,absheron-rayon-filiali-169,0,1,A,0,0,40.452874,49.751297,,,,"Abşeron rayonu, Xırdalan şəhəri, Qəzənfər Musabəyov küçəsi 22",Abşeron rayon filialı,cash_in
55,486,sumqayit-filiali-191,0,1,A,0,0,40.580124,49.672601,,,,"Sumqayıt şəhəri, C. Cabbarlı küçəsi 1 (40-cı məhəllə)",Sumqayıt filialı,cash_in
55,491,bazarstore-877,0,1,A,0,0,40.576006,49.679744,,,,"Sumqayıt şəhəri, Bakı küç 47",Bazarstore,cash_in
55,501,qubadli-filiali-207,0,1,A,0,0,40.590459,49.66699,,,,"Sumqayıt şəhəri, 17-ci məhəllə, H.Əliyev prospekti 11/38, sahə 7",Qubadlı filialı,cash_in
20,537,gence-filiali-24-7-elektron-xidmet-merkezi-807,0,1,A,0,0,40.675517,46.360406,,,,"Gəncə şəhəri, Cavadxan küçəsi 24","Gəncə filialı, 24 7 Elektron Xidmət Mərkəzi",cash_in
17,562,azergold-covdar-kendi-997,0,1,A,0,0,40.613329,46.108562,,,,"Daşkəsən rayonu, Çovdar kəndi","AzərGold, Çovdar kəndi",cash_in
38,768,qusar-rayonu-pik-palace-shahdag-oteli-708,0,1,A,0,0,41.318181,48.135352,,,,"Qusar rayonu, Kuzun kəndi, Qusar-Ləzə yolunun 29-cu km","Qusar rayonu, Pik Palace Şahdağ Oteli",cash_in
37,791,rixos-quba-hotel-752,0,1,A,0,0,41.332104,48.498602,,,,"Quba rayonu, Nərimanabad kəndi",Rixos Quba Hotel,cash_in
37,792,quba-sheh-asan-xidmet-818,0,1,A,0,0,41.363152,48.519733,,,,Quba şəh. H. Əliyev prospekti. ASAN Xidmət,Quba şəh ASAN Xidmət,cash_in
43,833,mingecevir-asan-xidmet-873,0,1,A,0,0,40.771351,47.035419,,,,"Mingəçevir şəhəri, H.Əliyev prospekti 380",Mingəçevir ASAN Xidmət,cash_in
1,991,hava-limani-karqo,1,1,A,0,0,40.465450,50.052638,,,,"Bakı şəhəri, Xəzər rayonu, Heydər Əliyev adına aeroport-Kargo",Hava Limanı - Kargo,cash_in
35,1160,tufandag,0,1,A,0,0,41.033146,47.886998,,,,"Tufandağ, Durca kəndi",Tufandağ,cash_in
1,1161,winter-park-hotel-company,1,1,A,0,0,40.375712,49.837263,,,,"Winter Park Hotel Company, Mirzəaga Əliyev Küçəsi",Winter Park Hotel Company,cash_in
1,1162,toyota-lexus-center,1,1,A,0,0,40.384718,49.868014,,,,"Toyota Lexus Mərkəzi, Fizuli Bayramov Küçəsi",Toyota Lexus Mərkəzi,cash_in
48,1179,kapital-bank-ordubad,0,1,A,0,0,38.903748,46.024189,,,,Kapital Bank Ordubad flialı,Kapital Bank Ordubad flialı,cash_in
20,1180,ramada-hotel,1,1,A,0,0,40.687979,46.338459,,,,"Ramada Hotel, Nizami Küçəsi 237",Ramada Hotel,cash_in
2,2,bolmart-saray-qesebesi,0,0,A,0,0,40.521889,49.688980,,,,"Abşeron rayonu, Saray qəsəbəsi, Bakı-Quba magistral yolu, 23-cü km","Bolmart, Saray qəsəbəsi",atm
2,3,araz-market-saray-qesebesi,1,0,A,0,0,40.523826,49.687490,,,,"Abşeron rayonu, Saray qəsəbəsi, Bakı-Sumqayıt yolu","Araz market, Saray qəsəbəsi",atm
2,4,azer-city-supermarket-masazir-qesebesi,1,0,A,0,0,40.4509043,49.765089,,,,"Masazır qəsəbəsi, Bakı-Sumqayıt yolunun 12-ci km","Azər City Supermarket, Masazır qəsəbəsi",atm
2,5,bazarstore-hokmeli-qesebesi,0,0,A,0,0,40.441305,49.748132,,,,"Abşeron rayonu, Hökməli qəsəbəsi, Şamaxı yolu 4-cü km 6","Bazarstore, Hökməli qəsəbəsi",atm
2,6,araz-marketceyranbatan-qesebesi,0,0,A,0,0,40.543543,49.662921,,,,"Bakı şəhəri, Ceyranbatan qəsəbəsi, Heydər Əliyev küçəsi 1","Araz Market,Ceyranbatan qəsəbəsi",atm
2,7,eslem-market-saray-qesebesi,0,0,A,0,0,40.53024,49.71465,,,,"Abşeron rayonu, Saray qəsəbəsi, M. Ə. Rəsulzadə küçəsi","Saray qəsəbəsi, Əsləm Market",atm
2,8,mehdiabad-belediyyesi-mehdiabad-qesebesi,1,0,A,0,0,40.496790,49.851778,,,,"Mehdiabad qəsəbəsi, 28 May küçəsi 28","Mehdiabad bələdiyyəsi, Mehdiabad qəsəbəsi",atm
2,9,qobu-marketqobu-qesebesi,0,0,A,0,0,40.407045,49.712955,,,,"Abşeron rayonu, Qobu qəsəbəsi","Qobu market,Qobu qəsəbəsi",atm
2,10,as-market-novxani-qesebesi,0,0,A,0,0,40.532520,49.785090,,,,"Abşeron rayonu, Novxanı qəsəbəsi","AS market, Novxanı qəsəbəsi",atm
2,11,petrolux-ydm-novxani-qesebesi,0,0,A,0,0,40.525428,49.773870,,,,"Abşeron rayonu, Novxanı qəsəbəsi","Petrolux YDM, Novxanı qəsəbəsi",atm
3,14,avsar-kendi-market,0,0,A,0,0,39.974530,47.420043,,,,"Ağcabədi rayonu, Avşar kəndi","Avşar kəndi, Market",atm
3,15,hacibedelli-kendi-yolustu-market,0,0,A,0,0,40.059121,47.339027,,,,"Ağcabədi rayonu, Hacıbədəlli kəndi","Hacıbədəlli kəndi, Yolüstü market",atm
3,16,agcabedi-rayonu-taxtakorpu-qesebesi,0,0,A,0,0,40.102912,47.516729,,,,"Ağcabədi rayonu, Taxtakörpü qəsəbəsi","Taxtakörpü qəsəbəsi, Laçın YDM",atm
3,17,agcabedi-seheri-delfin-market,0,0,A,0,0,40.028809,47.438953,,,,"Ağcabədi şəhəri, H. Əliyev prospekti 372","Ağcabədi şəhəri, Delfin market",atm
3,18,ticaret-merkezi-agcabedi-rayonu,0,0,A,0,0,39.937474,47.453459,,,,"Ağcabədi rayonu, Qaradolaq kəndi","Qaradolaq kəndi, Ticarət mərkəzi",atm
3,19,ticaret-merkezi-agcabedi-rayonu,0,0,A,0,0,40.045849,47.456048,,,,"Ağcabədi rayonu , H. Əliyev prospekti 54","Ticarət Mərkəzi, Ağcabədi rayonu",atm
3,20,okean-market-agcabedi-rayonu,0,0,A,0,0,40.052719,47.440934,,,,"Ağcabədi rayonu, Ü.Hacıbəyov prospekti","Okean market,  Ağcabədi rayonu",atm
4,22,ikinci-quzanli-qesebesi-market,0,0,A,0,0,40.163370,47.156344,,,,"Ağdam rayonu, İkinci Quzanlı qəsəbəsi","İkinci Quzanlı qəsəbəsi, Market",atm
4,23,birinci-quzanli-qesebesi-nar-mobile-magazasi,0,0,A,0,0,40.155903,47.162843,,,,"Ağdam rayonu, Birinci Quzanlı qəsəbəsi","Birinci Quzanlı qəsəbəsi, ""Nar Mobile"" mağazası",atm
4,25,dordyol-kendi-dordyol-market,0,0,A,0,0,40.239778,47.079245,,,,"Ağdam rayonu, Dördyol kəndi","Dördyol kəndi, Dördyol market",atm
4,26,qaradagli-kendi-yashil-market,0,0,A,0,0,40.024936,47.071524,,,,"Ağdam rayonu, Qaradağlı kəndi","Qaradağlı kəndi, Yaşıl market",atm
4,27,xindiristan-kendi-market,0,0,A,0,0,40.121312,47.105654,,,,"Ağdam rayonu, Xındırıstan kəndi","Xındırıstan kəndi, Market",atm
4,28,dordyol-kendi-agdam-qacqin-dushergesi,0,0,A,0,0,40.240611,47.076010,,,,"Ağdam rayonu, Dördyol kəndi","Dördyol kəndi, Ağdam Qaçqın Düşərgəsi",atm
4,29,benovsheler-kendi-azer-tepe-market,0,0,A,0,0,40.124958,47.080575,,,,"Ağdam rayonu, Bənövşələr kəndi","Bənövşələr kəndi, ""Azər Təpə"" market",atm
5,30,agdash-sheheri-agdash-market,0,0,A,0,0,40.646474,47.472014,,,,"Ağdaş rayonu, M.İsayev 16",Ağdaş market,atm
5,31,agdashagdash-filiali,0,0,A,0,0,40.645078,47.474994,,,,"Ağdaş rayonu, H. Əliyеv prospеkti 6",Ağdaş filialı,atm
5,33,leki-kendi-vusal-market-agdash-rayonu,0,0,A,0,0,40.559441,47.423315,,,,"Ağdaş rayonu, Ləki kəndi, Sabir küçəsi","Ləki kəndi, Vüsal market Ağdaş rayonu",atm
6,35,agstafa-kesemen-market-rafiq-elicanov-kucesi,0,0,A,0,0,41.123356,45.447217,,,,"Ağstafa şəhəri, Rafiq Əlicanov küçəsi","Ağstafa, ""Kəsəmən"" market (Rafiq Əlicanov küçəsi)",atm
6,36,agstafa-demiryol-vagzali,0,0,A,0,0,41.115466,45.450847,,,,"Ağstafa şəhəri, M.Ə.Rasulzadə küçəsi 9","Ağstafa, Dəmiryol vağzalı",atm
6,37,agstafa-sheheri-kesemen-market-heliyev-prospekti,0,0,A,0,0,41.114610,45.447215,,,,"Ağstafa şəhəri, H.Əliyev prospekti 12","Ağstafa şəhəri, ""Kəsəmən"" market (H.Əliyev prospekti)",atm
7,39,agsu-gegeli-yolu-elit-market,0,0,A,0,0,40.558123,48.403908,,,,"Ağsu rayonu, Ağsu-Gəgəli yolu","Ağsu-Gəgəli yolu, ""Elit"" market",atm
6,40,agstafa-rayon-filiali1,0,0,A,0,0,41.113629,45.440259,,,,"Ağstafa rayonu , H. Əliyev prospekti 1, döngə 1",Ağstafa rayon filialı,atm
8,43,shiyekeran-kendi-halal-market,0,0,A,0,0,38.597448,48.839881,,,,"Astara rayonu, Şiyəkəran kəndi","Şiyəkəran kəndi, ""Halal"" market",atm
5,47,agdash-sheheri-agdash-market-1,0,0,A,0,0,40.644594,47.473227,,,,"Ağdaş şəhəri, M.İsayev küçəsi 16","Ağdaş şəhəri, ""Ağdaş"" market",atm
4,48,agdam-filiali-agdam-rayonu1,0,0,A,0,0,40.157775,47.165547,,,,"Ağdam rayonu, Quzanlı qəsəbəsi","Ağdam filialı, Ağdam rayonu",atm
5,49,agdash-rayon-filiali-agdash-sheheri1-1,0,0,A,0,0,40.645269,47.474838,,,,"Ağdaş şəhəri, H. Əliyev küçəsi 6","Ağdaş rayon filialı, Ağdaş şəhəri",atm
9,56,nehrem-kendi-icra-numayendeliyi-236hlaz,0,0,A,0,0,39.120369,45.467632,,,,"Naxçıvan MR, Babək rayonu, Nehrəm kəndi","Nehrəm kəndi, İcra Nümayəndəliyi",atm
9,57,babek-filiali-5,0,0,A,0,0,39.158305,45.447734,,,,"Naxçıvan MR, Babək rayonu, Babək qəs., H. Əliyev prospekti 3",Naxçıvan MR DSMF Babək rayon şöbəsi,atm
1,61,abad-market,0,0,A,0,0,41.494355,46.620928,,,,Zaqatala ş. Aliabad qəs.,Abad market,atm
1,62,baki-slavyan-universiteti-1007,0,0,A,0,0,40.384647,49.843500,,,,"Bakı şəhəri, Nəsimi rayonu, Suleyman Rüstəm küçəsi 33",Bakı Slavyan Universiteti,atm
1,63,alov-zavodu-1006,0,0,A,0,0,40.410280,49.803516,,,,"Bakı şəhəri, Yasamal rayonu, Moskva prospekti 77",Alov zavodu,atm
1,64,menzil-kommunal-istismar-idaresi-1003,0,0,A,0,0,40.523097,49.948772,,,,"Bakı şəhəri, Sabunçu rayonu, Kürdəxanı qəsəbəsi",Mənzil Kommunal İstismar İdarəsi,atm
1,66,rahat-market-zabrat-1001,0,1,A,0,0,40.465749,49.944949,,,,"Bakı şəhəri, Sabunçu rayonu Zabrat ŞTQ Babkək 110H",Rahat Market (Zabrat),atm
1,67,muasir-tikinti-zavodu-1000,0,0,A,0,0,40.284737,49.723846,,,,"Bakı şəhəri, Salyan şossesi 47 km",Müasir Tikinti Zavodu,atm
1,68,caspian-plaza-999,0,1,A,0,0,40.385645,49.828640,,,,"Bakı şəhəri, Cəfər Cabbarlı 44",Caspian Plaza,atm
1,69,araz-market-memmedli-qesebesi-994,0,1,A,0,0,40.511484,49.941684,,,,"Bakı şəhəri, Sabunçu rayonu, Məmmədli qəsəbəsi","Araz market, Məmmədli qəsəbəsi",atm
1,70,nesimi-filiali-993,0,0,A,0,0,40.393585,49.836656,,,,"Bakı şəhəri, Nəsimi rayonu, İ.Qasımov küçəsi 4",Nəsimi filialı,atm
1,72,shimal-elektrik-stansiyasi-mmc-shuvelan-qesebesi-986,0,0,A,0,0,40.498816,50.209362,,,,"Bakı şəhəri, Şüvəlan qəsəbəsi, A.İldırım küçəsi 32","Şimal Elektrik Stansiyası MMC, Şüvəlan qəsəbəsi",atm
1,73,landmark-985,0,0,A,0,0,40.375879,49.849932,,,,"Bakı şəhəri, Nizami küçəsi 96E",Landmark,atm
1,74,leyla-shixlinskaya-klinikasi-984,0,0,A,0,0,40.382119,49.863370,,,,"Bakı şəhəri, Yusif Səfərov küçəsi 25",Leyla Şıxlinskaya Klinikası,atm
1,75,socar-petrol-983,0,0,A,0,0,40.392294,49.914955,,,,"Bakı şəhəri, Babək prospekti 2269-cu məhəllə, bina 1",Socar Petrol,atm
1,76,sea-breeze-resort-981,0,0,A,0,0,40.591486,49.985075,,,,"Bakı şəhəri, Nardaran qəsəbəsi",Sea Breeze Resort,atm
1,79,bridge-plaza-979,0,0,A,0,0,40.387106892549255,49.82929348273956,,,,"Bakı ş, Nəsimi rayonu, Bakıxanov küçəsi 24",Bridge Plaza,atm
1,80,araz-market-sahil-qesebesi-978,0,1,A,0,0,40.225528,49.572345,,,,"Bakı şəhəri, Qaradağ rayonu, Sahil qəsəbəsi, M.Seyidov küçəsi","Araz Market, Sahil qəsəbəsi",atm
1,81,heyder-eliyev-merkezi-977,0,1,A,0,0,40.395988,49.867795,,,,"Bakı şəhəri, Heydər Əliyev prospekti 1",Heydər Əliyev Mərkəzi,atm
1,82,shuvelanpark-ticaret-merkezi-976,0,0,A,0,0,40.484546,50.184034,,,,"Bakı şəhəri, Xəzər rayonu, Almaz İldırım 68",ŞüvəlanPark Ticarət Mərkəzi,atm
1,83,port-baku-922,0,0,A,0,0,40.376018215890745,49.86126340740964,,,,"Bakı şəhəri, Neftçilər prospekti 153",Port Baku,atm
1,84,port-baku-974,0,0,A,0,0,40.376018215890745,49.86126340740964,,,,"Bakı şəhəri, Neftçilər prospekti 153",Port Baku,atm
1,85,pasha-bank-bash-ofis-973,0,0,A,0,0,40.370912,49.838781,,,,"Bakı şəhəri, Y.Məmmədəliyev 13",Paşa Bank Baş Ofis,atm
1,86,bilgah-beach-hotel,0,0,A,0,0,40.576074,50.061837,,,,"Bakı şəhəri, Xəzər rayonu, Qəbələ küçəsi 94",Bilgəh Beach Hotel,atm
1,87,begoc-office-971,0,0,A,0,0,40.372988,49.849573,,,,"Bakı şəhəri, Zərifə Əliyeva küçəsi 41",Begoc Office,atm
1,88,socar-metanol-zavodu-969,0,0,A,0,0,40.274684,49.670310,,,,Salyan şossesi 25-ci km,SOCAR Metanol Zavodu,atm
1,91,baki-olimpiya-stadionu-963,0,1,A,0,0,40.430097,49.919536,,,,"Bakı şəhəri, Heydər Əliyev prospekti 323",Bakı Olimpiya stadionu,atm
1,92,dalga-beach-aquapark-960,0,0,A,0,0,40.513397,50.168927,,,,"Bakı şəhəri, Xəzər rayonu",Dalğa Beach Aquapark,atm
1,93,baku-expo-center-957,0,0,A,0,0,40.440363,50.034090,,,,"Bakı şəhəri, Heydər Əliyev prospekti",Baku Expo Center,atm
1,94,marriott-absheron-baku-955,0,0,A,0,0,40.374880,49.856741,,,,"Bakı şəhəri, Azadlıq 674",Marriott Absheron Baku,atm
1,96,ictimai-televiziya-ve-radio-yayimlari-shirketi-954,0,0,A,0,0,40.402043,49.801429,,,,"Bakı şəhəri, Yasamal rayonu Şərifzadə küçəsi 241",İctimai Televiziya və Radio Yayımları Şirkəti,atm
1,97,genclik-mall-953,0,0,A,0,0,40.399986,49.852837,,,,"Fətəli Xan Xoyski pr. 38, Gənclik Mall TM-nin -1-ci mərtəbəsi",Gənclik Mall,atm
1,98,intourist-hotel-baku-952,0,0,A,0,0,40.354391,49.833495,,,,"Bakı şəhəri, Mikayıl Useynov 51",Intourist Hotel Baku,atm
1,99,dinamo-hotel-baku-951,0,0,A,0,0,40.372253,49.848383,,,,"Bakı şəhəri, Zərifə Əliyeva küçəsi 32",Dinamo Hotel Baku,atm
1,100,marine-plaza-holiday-inn-baku-950,0,0,A,0,0,40.375812,49.858974,,,,"Bakı şəhəri, K.Səfərəliyeva küçəsi 5","Marine Plaza, Holiday İnn Baku",atm
1,101,four-season-hotel-949,0,0,A,0,0,40.363450,49.835156,,,,"Bakı şəhəri, Neftçilər prospekti 1",Four Season Hotel,atm
1,102,park-inn-hotel-948,1,0,A,0,0,40.371890,49.848744,,,,"Bakı şəhəri, Azadlıq prospekti 1",Park Inn Hotel,atm
1,103,boulevard-hotel-baku-947,0,0,A,0,0,40.375556,49.882962,,,,"Bakı şəhəri, Xəqani Rüstəmov küçəsi 4C",Boulevard Hotel Baku,atm
1,104,azerbaycan-diller-universiteti-946,0,0,A,0,0,40.383446,49.842900,,,,"Bakı şəhəri, Nəsimi rayonu, Rəşid Behbudov küçəsi 134",Azərbaycan Dillər Universiteti,atm
1,106,bona-dea-hospital-2-943,0,0,A,0,0,40.413353,49.930147,,,,"Bakı şəhəri, Mehdi Abbasov küçəsi 2","Bona-Dea, Hospital 2",atm
1,107,28-mall-parking-1-mertebe-942,0,0,A,0,0,40.379274,49.846865,,,,"Bakı şəhəri, Nəsimi rayonu, Azadlıq prospekti 15A",28 Mall (Parking -1 mərtəbə),atm
1,109,bravo-market-28-mall-940,0,0,A,0,0,40.379274,49.846865,,,,"Bakı şəhəri, Azadlıq prospekti 15A (28 Mall)","Bravo market, 28 Mall",atm
1,110,yeni-lenkeran-hotel-987,0,1,A,0,0,38.760602,48.765233,,,,"Lənkəran şəhəri, Haftoni kəndi",Yeni Lənkəran Hotel,atm
1,111,buta-market-hovsan-kendi-937,0,0,A,0,0,40.374165,50.085819,,,,"Bakı şəhəri, Suraxanı rayonu, Hövsan kəndi, Məktəbli küçəsi 18A","Buta market, Hövsan kəndi",atm
1,112,socar-neolit-934,0,1,A,0,0,40.405823,49.921512,,,,"Bakı şəhəri, Nizami rayonu, Oqtay Vəliyev küçəsi",SOCAR Neolit,atm
1,113,vip-filial-933,0,1,A,0,0,40.380717,49.841847,,,,"Bakı şəhəri, Nəsimi rayonu, Bül-bül prospekti 60, Gulustan residence",VIP filial,atm
1,114,atef-932,0,0,A,0,0,40.374904,50.055052,,,,"Bakı şəhəri, Zığ şössesi, Qaraçuxur qəsəbəsi",ATEF,atm
1,115,e-gov-genclik-930,0,0,A,0,0,40.405607,49.848664,,,,"Bakı şəhəri, Nəsimi rayonu, M.Mirqasımov küçəsi 25A",E-GOV Gənclik,atm
1,116,azerbaycan-dovlet-iqtisad-universiteti-929,0,0,A,0,0,40.396502,49.835590,,,,"Bakı şəhəri, Nəsimi rayonu, Abbas Səhhət küçəsi 45A",Azərbaycan Dövlət İqtisad Universiteti,atm
1,117,kendden-shehere-magazasi-926,0,0,A,0,0,40.376262,49.851647,,,,"Bakı şəhəri, Səbail rayonu, Nizami küçəsi 92",Kənddən Şəhərə mağazası,atm
1,118,absheron-2-hotel-marriott-hotel-925,0,0,A,0,0,40.374534,49.856099,,,,"Bakı şəhəri, Səbail rayonu, Azadlıq meydanı 674",Abşeron 2 Hotel (Marriott Hotel),atm
1,119,pasha-heyat-924,1,0,A,0,0,40.394001,49.876035,,,,"Bakı şəhəri, Nərimanov rayonu, Mayakovski küçəsi 15",PAŞA Həyat,atm
1,120,port-baku-975,0,0,A,0,0,40.376574,49.860963,,,,"Bakı şəhəri, Neftçilər prospekti 153",Port Baku,atm
1,121,four-season-hotel-949,0,0,A,0,0,40.363442,49.835166,,,,"Bakı şəhəri, Neftçilər prospekti",Four Season Hotel,atm
1,122,pera-group-919,0,0,A,0,0,40.402953,49.902846,,,,"Bakı şəhəri, Nizami rayonu, Keşlə qəsəbəsi",Pera Group,atm
1,123,excelsior-hotel-918,0,0,A,0,0,40.391857,49.868429,,,,"Bakı şəhəri, Heydər Əliyev prospekti 2",Excelsior Hotel,atm
1,124,sdn-plaza-prokon-glensol-917,0,0,A,0,0,40.421281,49.878505,,,,"Bakı şəhəri, Nərimanov rayonu, Ələsgər Qayıbov 12","SDN Plaza Prokon, Glensol",atm
1,125,bulvar-otel-916,0,0,A,0,0,40.375507,49.883019,,,,"Bakı şəhəri, Xəqani Rüstəmov küçəsi 4C",Bulvar Otel,atm
1,126,baku-medical-plaza-914,0,0,A,0,0,40.394446,49.964872,,,,"Bakı şəhəri, Babək prospekti 92N",Baku Medical Plaza,atm
1,128,absheron-hotel-910,0,0,A,0,0,40.374952,49.856723,,,,"Bakı şəhəri, Səbail rayonu, Azadlıq meydanı 674",Abşeron Hotel,atm
1,129,pasha-sigorta-909,0,1,A,0,0,40.358281,49.824010,,,,"Bakı şəhəri, Səbail rayonu, M.Useynov 61",Paşa Sığorta,atm
1,130,emlak-xidmeti-mekani-908,0,0,A,0,0,40.416629,49.901005,,,,"Bakı şəhəri, Nizami rayonu, Xəlil Rza Ulutürk küçəsi, 2005 məhəllə",Əmlak Xidməti Məkanı,atm
1,132,neftciler-kart-merkezi-filiali-906,0,1,A,0,0,40.411311,49.945867,,,,"Bakı şəhəri, Nizami rayonu, R. Rüstəmov küçəsi, 44D",Neftçilər kart mərkəzi filialı,atm
1,135,azerenerji-asc-sebail-rayonu-901,0,0,A,0,0,40.369550,49.839391,,,,"Bakı şəhəri, Səbail rayonu, Əbdül Əlizadə küçəsi 10","AzərEnerji ASC, Səbail rayonu",atm
1,136,bravo-hipermarket-koroglu-metrosu-900,0,0,A,0,0,40.418672,49.914134,,,,"Bakı şəhəri, Heydər Əliyev prospekti","Bravo Hipermarket, Koroğlu metrosu",atm
1,137,socar-neft-kemerleri-idaresi-899,0,0,A,0,0,40.382018,49.870843,,,,"Bakı şəhəri, Xətai rayonu, Xocalı Prospekti 44",SOCAR Neft Kəmərləri İdarəsi,atm
1,139,karmen-xirdalan-qesebesi-896,0,0,A,0,0,40.440895,49.757902,,,,"Şamaxı şossesi, Xırdalan qəsəbəsi","Karmen, Xırdalan qəsəbəsi",atm
1,140,ciraq-plaza-otel-ve-biznes-merkezi-895,0,0,A,0,0,40.395088,49.817758,,,,"Bakı şəhəri, Tbilisi prospekti 490",Çıraq Plaza Otel və Biznes Mərkəzi,atm
1,141,avromed-cobanzade-894,0,0,A,0,0,40.402695,49.937275,,,,"Bakı şəhəri, Çobanzadə küçəsi 238",Avromed Çobanzadə,atm
1,142,avromed-babek-893,0,0,A,0,0,40.394597,49.904083,,,,"Bakı şəhəri, Nizami Abdullayev 4",Avromed Babək,atm
1,143,mcdonalds-f-x-xoyski-830-892,0,0,A,0,0,40.399610,49.849927,,,,"Bakı şəhəri, Fətəli Xan Xoyski küçəsi 830","McDonald's , F. X. Xoyski 830",atm
1,144,norm-sement-zavodu-qaradag-qesebesi-891,0,0,A,0,0,40.250581,49.448799,,,,"Bakı şəhəri, Qaradağ qəsəbəsi, Salyan şosesi","Norm Sement zavodu, Qaradağ qəsəbəsi",atm
1,145,azerconnect-heyder-eliyev-prospekti-890,0,0,A,0,0,40.416957,49.909153,,,,"Bakı şəhəri, Heydər Əliyev prospekti 106A","AzərConnect, Heydər Əliyev prospekti",atm
1,146,mcdonalds-nerimanov-rayonu-889,0,0,A,0,0,40.402981,49.869904,,,,"Bakı şəhəri, Nərimanov rayonu, Təbriz küç. 1959","McDonalds, Nərimanov rayonu",atm
1,147,bilgeh-qesebesi-zaqulba-shossesi-888,0,0,A,0,0,40.582276,50.041412,,,,"Bakı ş, Bilgəh qəsəbəsi, Zaqulba şossesi 272","Bilgəh qəsəbəsi, Zaqulba şossesi",atm
1,148,demirci-plaza-887,0,0,A,0,0,40.38308551786773,49.87152815459626,,,,"Bakı ş, Nizami rayonu, Xocalı prospekti 37",Dəmirçi Plaza,atm
1,149,azterminalkompleks-sabuncu-rayonu-886,0,0,A,0,0,40.500614,49.969982,,,,"Bakı ş, Sabunçu rayonu, Zabrat-Maştağa şossesi 3","Azterminalkompleks, Sabunçu rayonu",atm
1,150,optimal-electronics-yasamal-rayonu-885,0,0,A,0,0,40.384032,49.803475,,,,"Bakı şəhəri, Yasamal rayonu, A.M.Şərifzadə 73","Optimal Electronics, Yasamal rayonu",atm
1,152,azerbaycan-dovlet-iqtisad-universiteti-esas-korpus-884,0,1,A,0,0,40.367640,49.832148,,,,"Bakı şəhəri, Səbail rayonu, İstiqlaliyyət küçəsi 61",Azərbaycan Dövlət İqtisad Universiteti - Əsas korpus,atm
1,153,azerbaycan-dovlet-iqtisad-universiteti-4-cu-korpus-883,0,0,A,0,0,40.405128,49.859769,,,,"Bakı şəhəri, Nərimanov rayonu, H. Əliyev küçəsi 135A",Azərbaycan Dövlət İqtisad Universiteti - 4-cü korpus,atm
1,154,azersu-asc-880,0,0,A,0,0,40.404547,49.806573,,,,"Yasamal rayonu, Heydər Əliyev prospekti 67",Azərsu ASC,atm
1,155,baki-logistika-merkezi-absheron-port-878,0,1,A,0,0,40.329477,49.764990,,,,"Qaradağ rayonu, Lökbatan qəsəbəsi",Bakı logistika mərkəzi (Abşeron Port),atm
1,156,dovlet-miqrasiya-xidmeti-876,0,0,A,0,0,40.427962,49.839986,,,,"Bakı şəhəri, Binəqədi rayonu, Binəqədi şossesi 202",Dövlət Miqrasiya Xidməti,atm
1,157,baki-dovlet-universiteti-esas-girishi-875,0,0,A,0,0,40.373108,49.811921,,,,"Bakı şəhəri, Yasamal rayonu, Z.Xəlilov küç. 23",Bakı Dövlət Universiteti Əsas Girişi,atm
1,158,dovlet-serhed-xidmeti-turkan-qesebesi-874,1,0,A,0,0,40.363239,50.156431,,,,"Bakı şəhəri, Xəzər rayonu, Türkan qəsəbəsi","Dövlət Sərhəd Xidməti, Türkan qəsəbəsi",atm
1,159,xarici-diller-universiteti-870,0,1,A,0,0,40.395137,49.860342,,,,"Bakı şəhəri, Nərimanov rayonu, Təbriz küç. 81",Xarici Dillər Universiteti,atm
1,162,bravo-filiali-2-20-yanvar-m-si-yaxinligi-850,0,0,A,0,0,40.401360,49.811158,,,,"Bakı şəh., Nəsimi rayonu, Tbilisi prospekti, məhəllə 3007 (20 Yanvar Bravo hipermarketinin daxilində)","Bravo filialı 2, (20 Yanvar m-sı yaxınlığı)",atm
1,163,yasamal-filiali-849,0,0,A,0,0,40.372490,49.817053,,,,"Bakı şəhəri, Yasamal rayonu, Landau küçəsi 6",Yasamal filialı,atm
1,164,bineqedi-filiali-848,0,0,A,1,0,40.40979,49.80797,,,,"Nəsimi rayonu, Asif Məhərrəmov küçəsi 174",Binəqədi Filialı,atm
1,165,247-elektron-xidmet-merkezi-n1-846,0,0,A,0,0,40.381357,49.846638,,,,"Nəsimi rayonu, Şamil Əzizbəyov  küçəsi 158",24/7 Elektron Xidmət Mərkəzi N1,atm
1,166,247-elektron-xidmet-merkezi-n1-847,0,0,A,0,0,40.381357,49.846638,,,,"Nəsimi rayonu, Şamil Əzizbəyov  küçəsi 158",24/7 Elektron Xidmət Mərkəzi N1,atm
1,167,ehmedli-filiali-841,0,0,A,0,0,40.386648,49.956983,,,,"Xətai rayonu, Sarayevo küçəsi, 7Q",Əhmədli filialı,atm
1,168,ehmedli-filiali-842,1,0,A,0,0,40.386648,49.956983,,,,"Xətai rayonu, Sarayevo küçəsi, 7Q",Əhmədli filialı,atm
1,169,247-elektron-xidmet-merkezi-n2-837,0,0,A,0,0,40.405086,49.870478,,,,"Nərimanov rayonu, A.Neymətulla küçəsi 54",24/7 Elektron Xidmət Mərkəzi N2,atm
1,170,247-elektron-xidmet-merkezi-n2-840,0,0,A,0,0,40.405086,49.870478,,,,"Nərimanov rayonu, A.Neymətulla küçəsi 54",24/7 Elektron Xidmət Mərkəzi N2,atm
1,171,qara-qarayev-filiali-atm-1-839,0,0,A,0,0,40.417904,49.934665,,,,"Nizami rayonu, Qara Qarayev prospekti 29","Qara Qarayev filialı, ATM 1",atm
1,172,qara-qarayev-filiali-838,0,0,A,0,0,40.417904,49.934665,,,,"Nizami rayonu, Qara Qarayev prospekti",Qara Qarayev filialı,atm
1,173,icerisheher-filiali-836,0,0,A,0,0,40.367877,49.828450,,,,"Səbail rayonu, Bünyad Sərdarov küçəsi 14",İçərişəhər filialı,atm
1,176,bakixanov-ticaret-merkezi-129,0,0,A,0,0,40.411613,49.966138,,,,Sabunçu ray. Ş.Kamilov  Küç 7,Bakıxanov ticarət mərkəzi,atm
1,177,sabuncu-filiali-128,0,1,A,0,0,40.43260,49.960377,,,,"Sabunçu rayonu, Bаkıхаnov qəsəbəsi, Ə. Ağayev küçəsi 41",Sabunçu filialı,atm
1,179,shusha-filiali-126,0,1,A,0,0,40.421931,49.842592,,,,"Bakı şəh Binəqədi rayonu, 8 mkr, İ. Dadaşov küçəsi 3158/3156-cı məhəllə",Şuşa filialı,atm
1,180,bineqedi-filiali-125,0,1,A,1,0,40.40979,49.80797,,,,"Nəsimi rayonu, Asif Məhərrəmov küçəsi 174",Binəqədi filialı,atm
1,182,kapital-bank-bash-ofis-831,0,0,A,0,0,40.379270,49.845022,,,,"Nəsimi rayonu, Füzuli küçəsi 71","Kapital Bank, Baş Ofis",atm
1,183,iqlim-eim-in-inzibati-binasi-36,0,0,A,0,0,40.529632,50.070536,,,,"Xəzər rayonu, Albalılıq dairəsi, keçid 1349","""İQLİM"" EİM-in inzibati binası",atm
1,184,kapital-bank-bash-ofis-832,0,0,A,0,0,40.379270,49.845022,,,,"Nəsimi rayonu, Füzuli küçəsi 71","Kapital Bank, Baş Ofis",atm
1,185,kapital-bank-bash-ofis-834,0,0,A,0,0,40.379270,49.845022,,,,"Nəsimi rayonu, Füzuli küçəsi 71","Kapital Bank, Baş Ofis",atm
1,186,bizim-market-bulbule-826,0,0,A,0,0,40.433100,49.983518,,,,"Surxanı ray., Bülbülə qəs., Səttər Bəhlulzadə küç. 50","Bizim market, Bülbülə",atm
1,188,yeni-suraxani-qesebesi-market-822,0,0,A,0,0,40.432553,50.033309,,,,"Suraxanı rayonu, Yeni Suraxanı qəsəbəsi, 14 iyul küç.12 (Market)","Yeni Suraxanı qəsəbəsi, Market",atm
1,189,nesimi-rayonu-araz-market-821,0,1,A,0,0,40.401168,49.831580,,,,"Nəsimi rayonu, S.Vurğun 134 (Araz Market)","Nəsimi rayonu, Araz Market",atm
1,190,azerbaycan-tibb-universiteti-820,0,1,A,0,0,40.395608,49.832849,,,,"Nəsimi rayonu, S.Vurğun 167 (Azərbaycan Tibb Universiteti)",Azərbaycan Tibb Universiteti,atm
1,191,bakixanov-filiali-817,0,1,A,0,0,40.4148552,49.9641895,,,,Sabunçu ray. Bakıxanov qəs. S. Qocayev küç. 13,Bakıxanov filialı,atm
1,192,xezer-ray-lezzet-shirniyyat-evi-815,0,1,A,0,0,40.487127,50.165159,,,,"Bakı şəh. Xəzər ray., Yesenin küç. 56 (“Ləzzət Cake House”)",Xəzər  ray. lezzet şirniyyat evi,atm
1,193,aqrolizinq-asc-814,0,0,A,0,0,40.429628,49.946010,,,,Sabunçu  ray.  Bakıxanov qəs.  B. Bünyadov küç. 12,Aqrolizinq ASC,atm
1,194,azerbaycan-dovlet-medeniyyet-ve-incesenet-universiteti-813,0,0,A,0,0,40.379730,49.820891,,,,"Yasamal ray, İnşaatçılar pr. 39 (ADMİU)",Azərbaycan Dövlət Mədəniyyət və İncəsənət Universiteti,atm
1,195,azerbaycan-dovlet-neft-ve-senaye-universiteti-812,0,0,A,0,0,40.377658,49.847124,,,,"Nəsimi  ray, Dilarə Əliyeva küç. 227",Azərbaycan Dövlət Neft və Sənaye Universiteti,atm
1,196,emanetlerin-sigortalanmasi-fondu-811,0,0,A,0,0,40.388741,49.875845,,,,Xətai  ray.  Babək pr. 16,Əmanətlərin Sığortalanması Fondu,atm
1,197,araz-market-masazir-qesebesi-810,0,0,A,0,0,40.478829,49.753050,,,,"Abşeron rayonu, Masazır qəsəbəsi, Əliağa Vahid küçəsi","Araz market, Masazır qəsəbəsi",atm
1,198,bravo-market-787,0,0,A,0,0,40.387944,49.874368,,,,"Xətai rayonu, Babək prospekti ilə Nəcəfqulu Rəfiyev küçəsinin kəsişməsi",Bravo market,atm
1,199,xususi-mualice-saglamliq-kompleksi-badamdar-qesebesi-782,0,0,A,0,0,40.352757,49.809534,,,,"Səbail rayonu, Badamdar qəsəbəsi, 31-ci Badamdar şossesi","Xüsusi Müalicə Sağlamlıq Kompleksi, Badamdar qəsəbəsi",atm
1,202,araz-market-yeni-guneshli-qesebesi-774,0,0,A,0,0,40.38355182977128,49.98254084910445,,,,"Suraxanı rayonu, Yeni Günəşli qəsəbəsi, V yaşayış massivi","Araz market, Yeni Günəşli qəsəbəsi",atm
1,204,makromart-nerimanov-758,0,0,A,0,0,40.388717,49.849812,,,,"Nərimanov rayonu, Ülvi Bünyadzadə küçəsi 17","Makromart, Nərimanov",atm
1,205,bilgeh-beach-hotel-972,0,0,A,0,0,40.577239,50.063884,,,,"Xəzər rayonu, Bilgəh qəsəbəsi, Qələbə küçəsi 94",Bilgah Beach Hotel,atm
1,206,oba-market-meresulzade-qes-754,0,0,A,0,0,40.436285,49.842375,,,,"Binəqədi rayonu, M.Ə. Rəsulzadə qəs., Arif Hüseynov küçəsi","Oba Market, M.Ə.Rəsulzadə qəs.",atm
1,207,baki-dovlet-universiteti-751,0,0,A,0,0,40.374288,49.811719,,,,"Yasamal rayonu, Z. Xəlilov küçəsi 23",Bakı Dövlət Universiteti,atm
1,210,suraxani-neft-emeliyyat-shirketi-743,0,0,A,0,0,40.423145,50.004941,,,,"Suraxanı rayonu, Əmircan qəsəbəsi, Xanlar Ələkbərov küçəsi 20",Suraxanı Neft Əməliyyat Şirkəti,atm
1,211,bolmart-salamzade-kucesi-742,1,0,A,0,0,40.398564,49.815984,,,,"Yasamal rayonu, Ə. Salamzadə küçəsi 1058","Bolmart, Salamzadə küçəsi",atm
1,212,veyseloglu-shirketler-qrupu-739,0,0,A,0,0,40.403720,49.893764,,,,"Nizami rayonu, Keşlə qəsəbəsi, 2-ci Eninə küçəsi 2",Veysəloğlu Şirkətlər Qrupu,atm
1,213,yasamal-rayon-muhafize-idaresi-738,0,0,A,0,0,40.394006,49.803603,,,,"Yasamal rayonu, Əsəd Əhmədov küçəsi 26B",Yasamal Rayon Mühafizə İdarəsi,atm
1,214,hokumet-evi-737,0,0,A,0,0,40.373533,49.852796,,,,"Səbail rayonu, Üzəyir Hacıbəyli küşəsi 80",Hökümət Evi,atm
1,215,balaxani-neft-shirketi-736,0,0,A,0,0,40.442770,49.944452,,,,"Sabunçu r-nu, Sabunçu qəsəbəsi, Seyid Hüseyn küçəsi 5",Balaxanı Neft Şirkəti,atm
1,216,araz-market-hovsan-734,0,0,A,0,0,40.360741,50.080133,,,,"Suraxanı rayonu, Hövsan qəsəbəsi, İlqar Əhlimanov küçəsi 225","Araz market, Hövsan",atm
1,217,badamdar-filiali-731,0,0,A,0,0,40.354211,49.806424,,,,Badamdar qəsəbəsi Mikayıl Müşfiq küçəsi 1C,Badamdar filialı,atm
1,218,azerbaycan-avtomobil-yollari-dovlet-agentliyi-730,0,0,A,0,0,40.42316,49.802694,,,,"Binəqədi rayonu, Biləcəri qəsəbəsi, R. İsmayılov küçəsi 20/25",Azərbaycan avtomobil yolları dövlət agentliyi,atm
1,219,vergiler-nazirliyi-yaninda-milli-gelirler-departamenti-728,0,0,A,0,0,40.412120,49.895439,,,,"Nizami rayonu, Heydər Əliyev prospekti 105",Vergilər Nazirliyi yanında Milli Gəlirlər Departamenti,atm
1,220,azercell-telekom-mmc-mushteri-xidmetleri-727,0,0,A,0,0,40.383770,49.823430,,,,"Yasamal rayonu, Bəsti Bağırova küçəsi 2",Azercell Telekom MMC-Müştəri Xidmətləri,atm
1,221,azerbaycan-memarliq-ve-inshaat-universiteti-726,0,0,A,0,0,40.369344,49.812799,,,,"Yasamal rayonu, A. Sultanova küçəsi 11",Azərbaycan Memarlıq və İnşaat Universiteti,atm
1,222,azerbaycan-dovlet-neft-ve-senaye-universiteti-giris-1-725,0,0,A,0,0,40.378454,49.848056,,,,"Nəsimi rayonu, Azadliq pr 20",Azərbaycan Dövlət Neft və Sənaye Universiteti giris 1,atm
1,223,aneymetulla-kucesi-23-nerimanov-724,1,0,A,0,0,40.397882,49.877167,,,,"Nərimanov rayonu, A.Neymətulla küçəsi 23","A.Neymətulla küçəsi 23, Nərimanov",atm
1,224,qabbasov-kushesi-13-bayil-qesebesi-723,0,0,A,0,0,40.346375,49.837693,,,,"Səbail rayonu, Bayıl qəsəbəsi, Qurban Abbasov küşəsi 13","Q.Abbasov küşəsi 13, Bayıl qəsəbəsi",atm
1,225,tayqa-ticaret-merkezi-bineqedi-rayonu-722,0,0,A,0,0,40.431738,49.851662,,,,"Binəqədi rayonu, 7-ci mkr., Abay Kunanbayev küçəsi 312","Tayqa ticarət mərkəzi, Binəqədi rayonu",atm
1,226,memmedli-icra-numayendeliyi-719,0,0,A,0,0,40.504722,49.904471,,,,Bakı ş. Abşeron ray. Məmmədli qəsəbəsi,Məmmədli İcra nümayəndəliyi,atm
1,227,ada-universiteti-941,0,1,A,0,0,40.394598,49.849372,,,,"Nərimanov rayonu, Əhmədbəy Ağaoğlu küçəsi 11",ADA Universiteti,atm
1,228,baki-beynelxalq-deniz-ticaret-limani-714,0,0,A,0,0,39.977066,49.440763,,,,"Qaradağ rayonu, Ələt qəsəbəsi",Bakı Beynəlxalq Dəniz Ticarət Limanı,atm
1,229,bravo-hipermarket-ehmedli-qesebesi-713,0,0,A,0,0,40.374582,49.944886,,,,"Xətai rayonu, Əhmədli qəsəbəsi, Ramiz Quliyev küçəsi 4","Bravo Hipermarket, Əhmədli qəsəbəsi",atm
1,230,azerbaycan-texniki-universiteti-712,0,1,A,0,0,40.370066,49.815565,,,,"Yasamal rayonu, H. Cavid prospekti 25",Azərbaycan Texniki Universiteti,atm
1,231,azerbaycan-dovlet-pedaqoji-universiteti-711,0,0,A,0,0,40.373290,49.848026,,,,"Nəsimi rayonu, Ü. Hacıbeyli küçəsi 68",Azərbaycan Dövlət Pedaqoji Universiteti,atm
1,232,xezer-market-qaracuxur-qesebesi-710,0,0,A,0,0,40.400855,49.976464,,,,"Suraxanı rayonu, Qaraçuxur qəs., C. Qurbanov küçəsi, məh. 4057/4060","Xəzər market, Qaraçuxur qəsəbəsi",atm
1,233,koroglu-metro-stansiyasi-709,0,0,A,0,0,40.421337,49.918780,,,,"""Koroğlu"" metro stansiyası",Koroğlu metro stansiyası,atm
1,234,makromart-bineqedi-rayonu-705,0,0,A,0,0,40.413365,49.827917,,,,"Binəqədi rayonu, Səttar Bəhlulzadə küçəsi 14","Makromart, Binəqədi rayonu",atm
1,235,oba-market-bileceri-qesebesi-704,0,0,A,0,0,40.439489,49.809218,,,,"Binəqədi rayonu, Biləcəri qəsəbəsi, məhəllə 50-5768","Oba Market, Biləcəri qəsəbəsi",atm
1,236,nursell-market-bineqedi-rayonu-699,1,0,A,0,0,40.415954,49.839832,,,,"Binəqədi rayonu, Əcəmi Naxçıvani küçəsi 18A","Nursell market, Binəqədi rayonu",atm
1,237,qaradag-rayonu-qobustan-qesebesi-salyan-shossesi-tabriz-market-698,0,0,A,0,0,40.088136,49.416693,,,,"Qaradağ rayonu, Qobustan qəsəbəsi, Salyan şossesi","Qaradağ rayonu, Qobustan qəsəbəsi, Salyan şossesi Tabriz market",atm
1,238,qara-qarayev-filiali-695,0,1,A,0,0,40.417904,49.934665,,,,"Nizami rayonu, Qara Qarayev prospekti 29",Qara Qarayev filialı,atm
1,239,holcim-zavod-sahil-qesebesi-693,0,0,A,0,0,40.223121,49.558046,,,,"Bakı şəhəri, Sahil qəsəbəsi, Salyan Şossesi","Holcim zavod, Sahil qəsəbəsi",atm
1,260,oba-market-keshle-qesebesi-593,0,0,A,0,0,40.394007,49.895069,,,,"Nizami rayonu, Keşlə qəsəbəsi, Mirzə Ələkbər Sabir küçəsi 33","OBA market, Keşlə qəsəbəsi",atm
1,261,bolmart-nesimi-rayonu-585,0,1,A,0,0,40.384079,49.837819,,,,"Bakı şəhəri, Nəsimi rayonu, Səməd Vurğun küçəsi 75","Bolmart, Nəsimi rayonu",atm
1,262,poct-balaxani-qesebesi-583,1,0,A,0,0,40.459387,49.922532,,,,"Sabunçu r-nu, Balaxanı qəsəbəsi, M.Ə. Sabir küçəsi 1","Poçt, Balaxanı qəsəbəsi",atm
1,263,poct-5-lokbatan-qesebesi-65,0,0,A,0,0,40.381050,49.965188,,,,"Bakı şəhəri, Xətai rayonu, Ə.Şıxlinski küçəsi 2942A","Favorit market, Neapol dairəsinin yanı",atm
1,264,genclik-mall-581,0,1,A,0,0,40.399986,49.852837,,,,"Fətəli Xan Xoyski pr. 38, Gənclik Mall TM-nin -1-ci mərtəbəsi",Gənclik Mall,atm
1,265,qacqinkom-568,1,0,A,0,0,40.398908,49.811263,,,,"Bakı şəh,Tbilisi pr. 129",ATM köşkü,atm
1,266,qobu-park-yashayish-massivi-qaradag-rayonu-192,1,0,A,0,0,40.346558,49.479785,,,,"Bakı şəhəri, Qaradağ rayonu, Lökbatan Qaradağ yolu, 3-cü km","Qobu Park yaşayış massivi, Qaradağ rayonu",atm
1,267,rahat-market-bine-qes-173,0,0,A,0,0,40.424626,50.102736,,,,"Xəzər rayonu, Binə qəs., Sovxoz şossəsi 3-cü km","Rahat market, Binə qəs",atm
1,268,yasamal-filiali-172,0,1,A,0,0,40.372490,49.817053,,,,"Bakı şəhəri, Yasamal rayonu, Landau küçəsi 6",Yasamal filialı,atm
1,269,lukoyl-ydm-digah-qesebesi-170,0,0,A,0,0,40.484697,49.865566,,,,"Abşeron rayonu, Digah qəsəbəsi","Lukoyl YDM, Digah qəsəbəsi",atm
1,270,rahat-market-mashtaga-qesebesi-155,0,0,A,0,0,40.530958,49.993944,,,,"Sabunçu rayonu, Maştağa qəsəbəsi, Nizami küçəsi 2B","Rahat market, Maştağa qəsəbəsi",atm
1,271,bileceri-demiryol-stansiyasi-154,0,0,A,0,0,40.432403,49.804610,,,,"Binəqədi rayonu, Biləcəri qəsəbəsi, Y. Hüseynov küçəsi 18",Biləcəri dəmiryol stansiyası,atm
1,272,nesimi-rayon-muhafize-idaresi-151,0,0,A,0,0,40.394082,49.835081,,,,"Nəsimi rayonu, S.Vurğun küçəsi 112",Nəsimi Rayon Mühafizə İdarəsi,atm
1,273,5-sayli-asan-xidmet-merkezi-nizami-rayonu-149,0,0,A,0,0,40.418017,49.909373,,,,"Nizami rayonu, H.Əliyev prospekti 115","5 saylı ASAN xidmət mərkəzi, Nizami rayonu",atm
1,274,azerbaycan-demir-yollari-qsc-148,0,0,A,0,0,40.378574,49.854134,,,,"Nəsimi rayonu, D.Əliyeva küçəsi 230",Azərbaycan Dəmir Yolları QSC,atm
1,275,247-elektron-xidmet-merkezi-n2-147,0,1,A,0,0,40.405086,49.870478,,,,"Nərimanov rayonu, A.Neymətulla küçəsi 54",24/7 Elektron Xidmət Mərkəzi N2,atm
1,276,fuzuli-market-qaradag-rayonu-146,0,0,A,0,0,40.205276,49.519531,,,,"Bakı şəhəri, Qaradağ rayonu, Ümid qəsəbəsi","Füzuli market, Qaradağ rayonu",atm
1,277,icerisheher-filiali-144,0,1,A,0,0,40.367877,49.828450,,,,"Bakı şəh Səbail rayonu, Bünyad Sərdarov küçəsi 14",İçərişəhər filialı,atm
1,278,genclik-filiali-143,0,1,A,0,0,40.401512,49.846882,,,,"Nərimanov rayonu, Həsən Əliyev küçəsi, 889-cu məhəllə, ev 82",Gənclik filialı,atm
1,279,bakielektrikshebeke-142,0,0,A,0,0,40.414662,49.882090,,,,"Nərimanov rayonu, Ə. Qayıbov küçəsi 8",Bakıelektrikşəbəkə,atm
1,280,rahat-market-nizami-rayonu-140,0,0,A,0,0,40.413414,49.951653,,,,"Nizami rayonu, R.Rüstəmov küçəsi ilə Şərifli küçəsinin kəsişməsi","Rahat market, Nizami rayonu",atm
1,281,rahat-market-mushfiqabad-qesebesi-139,0,0,A,0,0,40.473881,49.615706,,,,"Qaradağ rayonu, Müşfiqabad qəsəbəsi, Bakı-Şamaxı yolunun 16-cı km","Rahat market, Müşfiqabad qəsəbəsi",atm
1,282,serham-market-137,0,0,A,0,0,40.436859,49.959799,,,,"Sabunçu rayonu, Bakıxanov qəsəbəsi, Y.Əliyev küçəsi 37",Sərham Market,atm
1,283,park-bulvar-136,0,0,A,0,0,40.370437,49.849626,,,,"Səbail rayonu, Neftçilər prospekti 92",Park Bulvar,atm
1,284,qaradag-rayon-filiali-130,0,1,A,0,0,40.322402,49.738154,,,,"Qaradağ rayonu, Lökbatan qəsəbəsi, 28 May küçəsi",Qaradağ rayon filialı,atm
1,285,sari-market-bileceri-qesebesi-124,1,0,A,0,0,40.426016,49.818717,,,,"Bakı şəhəri, Binəqədi rayonu, Biləcəri qəsəbəsi","Sarı Market, Biləcəri qəsəbəsi",atm
1,286,ehmedli-filiali-123,0,1,A,0,0,40.386648,49.956983,,,,"Xətai rayonu, Sarayevo küçəsi, 7Q",Əhmədli filialı,atm
1,288,xetai-filiali-120,0,1,A,0,0,40.379852,49.865684,,,,"Xətai rayonu, S.Orucov küçəsi 12",Xətai filialı,atm
1,289,memar-ecemi-metro-stansiyasi-118,0,0,A,0,0,40.410683,49.813494,,,,"""Memar Əcəmi"" metro stansiyası",Memar Əcəmi metro stansiyası,atm
1,290,araz-market-bdu-116,0,0,A,0,0,40.374984,49.811313,,,,"Yasamal rayonu, Z. Xəlilov küçəsi 38A","Araz market, BDU",atm
1,291,araz-market-statistika-komitesi-115,0,1,A,0,0,40.382720,49.822931,,,,"Yasamal rayonu, İnşaatçılar prospekti 31","Araz market, Statistika komitəsi",atm
1,292,araz-market-buzovna-qesebesi-114,0,0,A,0,0,40.516650,50.101612,,,,"Xəzər rayonu, Buzovna qəsəbəsi H. Eyvazov küçəsi 47","Araz market, Buzovna qəsəbəsi",atm
1,293,araz-market-mashtaga-qesebesi-113,0,0,A,0,0,40.506678,49.975560,,,,"Sabunçu rayonu, Maştağa qəsəbəsi, Zabrat-Maştağa yolu 27 KM","Araz market, Maştağa qəsəbəsi",atm
1,294,rahat-market-qala-qesebesi-112,0,0,A,0,0,40.474635,50.109661,,,,"Xəzər rayonu, Qala qəsəbəsi, Qala küçəsi 15","Rahat market, Qala qəsəbəsi",atm
2,301,nicat-market-digah-kendi,0,0,A,0,0,40.492415,49.865335,,,,"Abşeron rayonu, Digah kəndi, H.Rəhmanov küçəsi 4A","Nicat market, Digah kəndi",atm
3,302,qarabag-market-agcabedi-rayonu-991,0,0,A,0,0,40.052596,49.409261,,,,"Ağcabədi rayonu, 1 saylı qəsəbə","Qarabağ market, Ağcabədi rayonu",atm
3,311,agcabedi-rayon-filiali-388,0,0,A,0,0,40.052407,47.460597,,,,"Ağcabədi rayon, F. Əlizadə küçəsi 5",Ağcabədi rayon filialı,atm
7,334,agsu-rayon-filiali,0,0,A,0,0,40.567021,48.402823,,,,"Ağsu rayon, H. Əliyev küçəsi 109",Ağsu rayon filialı,atm
8,335,senceredi-kendi-market-806,0,0,A,0,0,38.465206,48.810206,,,,"Astara rayonu, Səncərədi kəndi","Səncərədi kəndi, Market",atm
8,338,shahin-supermarket-kijebe-kendi-506,0,0,A,0,0,38.532901763916,48.8061828613281,,,,"Astara rayonu, Kijəbə kəndi","Şahin Supermarket, Kijəbə kəndi",atm
8,339,ercivan-kendi-market-505,0,0,A,0,0,38.499255,48.830995,,,,"Astara rayonu, Ərçivan kəndi","Ərçivan kəndi, market",atm
8,340,astara-yeni-market-504,0,0,A,0,0,38.463916,48.873023,,,,"Astara şəhəri, H. Əliyev prospekti","Astara, ""Yeni"" market",atm
8,341,penser-kendi-balli-market-503,0,0,A,0,0,38.602874,48.813277,,,,"Astara rayonu, Pensər kəndi","Pensər kəndi, ""Ballı"" market",atm
8,342,astara-rayon-filiali-502,0,0,A,0,0,38.450380,48.874116,,,,"Astara şəhəri, H. Əliyev prospekti 71",Astara rayon filialı,atm
9,343,babekbabek-filiali-989,0,0,A,0,0,39.158418,45.447782,,,,"Naxçıvan MR, Babək rayonu, H. Əliyev prospekti 26",Babək filialı,atm
9,345,cehri-kendi-icra-numayendeliyi-237,0,0,A,0,0,39.345470,45.415655,,,,"Naxçıvan MR, Babək rayonu, Cəhri kəndi","Cəhri kəndi, İcra Nümayəndəliyi",atm
9,348,kerimbeyli-qesebesi-icra-numayendeliyi-176,0,0,A,0,0,39.255701,45.454025,,,,"Naxçıvan MR, Babək rayonu, Kərimbəyli kəndi","Kərimbəyli qəsəbəsi, İcra Nümayəndəliyi",atm
1,349,bine-ticaret-merkezi-1012,0,0,A,0,0,40.30397147734588,49.75418845157514,,,,Baki ş. Səlyan şosesi,Binə Ticarət Mərkəzi,atm
1,350,sederek-ticaret-sobesi-1011,0,0,A,0,0,40.324434,49.779812,,,,Baki-Ələt-Qazax-Gürcustan yolu 1063,Sedərək ticarət söbəsi,atm
68,353,zift-supermarket-zaqatala-sheheri-285,0,0,A,0,0,41.631766,46.650759,,,,"Zaqatala şəhəri, Nizami küçəsi 35","""Zift"" Supermarket, Zaqatala şəhəri",atm
68,354,bazarstore-supermarket-zaqatala-sheheri-284,0,0,A,0,0,41.629754,46.643896,,,,"Zaqatala şəhəri,  Molla Vəli Vidadi küçəsi 3","Bazarstore Supermarket, Zaqatala şəhəri",atm
68,355,zaqatala-filiali-283,0,0,A,0,0,41.630441,46.639180,,,,"Zaqatala şəhəri, H. Əliyev prospekti 169",Zaqatala  filialı,atm
69,356,orxan-electronics-zerdab-rayonu-939,0,0,A,0,0,40.220995,47.707943,,,,"Zərdab rayonu, Azərbaycan küçəsi 122","Orxan Electronics, Zərdab rayonu",atm
69,357,sunny-market-784,0,0,A,0,0,40.211864,47.708893,,,,"Zərdab şəhəri, Samir Abdullayev 39A",Sunny market,atm
69,358,zerdab-filiali-700,0,0,A,0,0,40.220713,47.710138,,,,"Zərdab rayonu, H.Əliyev prospekti 17",Zərdab filialı,atm
69,359,aydan-telekom-zerdab-sheheri-343hlaz,0,0,A,0,0,40.228719,47.70736,,,,"Zərdab şəhəri, H. Əliyev prospekti 1","""Aydan Telekom"", Zərdab şəhəri",atm
26,404,araz-market-xirdalan-sheh-592,0,1,A,0,0,40.455756,49.740424,,,,"Xırdalan şəh., 28 məhəllə, Mehdi Hüseynzadə küçəsi 7","Araz market, Xırdalan şəh",atm
1,405,improtex-travel-4,0,0,A,0,0,40.373379,49.842402,,,,"Səbail rayonu, Nizami küçəsi 66",Improtex Travel,atm
1,406,etek-market-ramani-qesebesi-5,0,0,A,0,0,40.468212,50.014133,,,,"Bakı şəhəri, Ramanı qəsəbəsi, Şuşa şəhərciyi","Pətək market, Ramanı qəsəbəsi",atm
1,407,azerbaycan-neshriyyati-6,0,0,A,0,0,40.369192,49.810065,,,,"Yasamal rayonu, Mətbuat prospekti 529","""Azərbaycan"" Nəşriyyatı",atm
1,408,zire-celiyev-kucesi-market-7,1,0,A,0,0,40.374833,50.287062,,,,"Xəzər rayonu, Zirə qəsəbəsi, Cəlal Əliyev küçəsi","Zirə, C.Əliyev küçəsi, Market",atm
1,409,xezer-filiali-12,0,1,A,0,0,40.486567,50.17039,,,,"Xəzər rayonu, Şüvəlan qəsəbəsi, A.İldırım küçəsi 16",Xəzər filialı,atm
1,410,market-zire-pirallahi-yolu-13,1,0,A,0,0,40.427736,50.20825,,,,"Xəzər rayonu, Zirə-Pirallahı yolu","Market, Zirə-Pirallahı yolu",atm
1,411,nnerimanov-metro-stansiyasi-15,0,0,A,0,0,40.403333,49.871053,,,,"""Nəriman Nərimanov"" metro stansiyası",N.Nərimanov metro stansiyası,atm
1,412,araz-market-bine-qesebesi-16,1,0,A,0,0,40.44978,50.087808,,,,"Xəzər rayonu, Binə qəsəbəsi, Əli İsazadə küçəsi 5","Araz market, Binə qəsəbəsi",atm
1,413,albali-market-buzovna-qesebesi-17,0,0,A,0,0,40.517577,50.070801,,,,"Xəzər rayonu,Buzovna qəsəbəsi, M.Ə. Sabir küçəsi 22","Albalı market, Buzovna qəsəbəsi",atm
1,414,favorit-market-buzovna-19,0,0,A,0,0,40.527142,50.098068,,,,"Buzovna qəsəbəsi, Rasim İmanov küçəsi 22A","Favorit Market, Buzovna",atm
1,415,emlak-meseleleri-dovlet-komitesi-21,0,0,A,0,0,40.383476,49.864603,,,,"Xətai rayonu, Y.Səfərov küçəsi 2",Əmlak Məsələləri Dövlət Komitəsi,atm
1,416,market-qala-qesebesi-22,1,0,A,0,0,40.439174,50.171412,,,,"Xəzər rayonu, Qala qəsəbəsi, Sülh küçəsi 36","Market, Qala qəsəbəsi",atm
1,418,56-sayli-poct-shobesi-turkan-turkan-qesebesi-24,1,0,A,0,0,40.365182,50.211685,,,,"Xəzər rayonu, Türkan qəsəbəsi, Xanlar küçəsi 29","56 saylı Poçt şöbəsi, Türkan Türkan qəsəbəsi",atm
1,419,inshaatcilar-metro-stansiyasi-25,0,0,A,0,0,40.391339,49.802168,,,,"""İnşaatçılar"" metro stansiyası",İnşaatçılar metro stansiyası,atm
1,420,makromart-bakixanov-qes-26,0,1,A,0,0,40.42447,49.959483,,,,"Sabunçu rayonu, Bakıxanov qəs., S.Mehmandarov küçəsi 28","Makromart, Bakıxanov qəs",atm
1,421,istiqlaliyyet-kuc-nar-mobile-30,0,0,A,0,0,40.368362,49.832578,,,,"Səbail rayonu, İstiqlaliyyət küçəsi 43","İstiqlaliyyət küç, Nar mobile",atm
1,422,rahat-market-azadliq-pr-31hl,0,0,A,0,0,40.425515,49.844125,,,,"Binəqədi rayonu, S.S.Axundov küçəsi 3G","Rahat market, Azadlıq pr.",atm
1,423,nesimi-metro-stansiyasi-33hl,0,0,A,0,0,40.424503,49.826751,,,,"""Nəsimi"" metro stansiyası",Nəsimi metro stansiyası,atm
1,424,azadliq-prospekti-metro-stansiyasi-34hl,0,0,A,0,0,40.425491,49.841517,,,,"""Azadlıq Prospekti"" metro stansiyası",Azadlıq Prospekti metro stansiyası,atm
1,425,sari-market-yeni-yasamal-38,0,0,A,0,0,40.40131054,49.79729338,,,,"Yasamal rayonu, Y.Yasamal, Xiyabani 1","Sarı Market, Yeni Yasamal",atm
1,426,mincivan-ticaret-merkezi-40,0,0,A,0,0,40.389574,49.9617,,,,"Xətai rayonu, M.Rüstəmov küçəsi 24/20",Mincivan ticarət mərkəzi,atm
1,427,oba-market-4-cu-mkr-41,1,0,A,0,0,40.413099,49.809241,,,,"Nəsimi rayonu, 20 Yanvar küçəsi 40B","Oba market, 4-cü mkr.",atm
1,428,socar-petrolium-42,0,0,A,0,0,40.455677,50.335886,,,,"Pirallahı qəsəbəqəsi, Məşədi Əzizbəyov küçəsi 22",Socar Petrolium,atm
1,429,hobby-market-ehmedli-46,1,1,A,0,0,40.378834,49.948193,,,,"Xətai rayonu, Aşıq Ələsgər küçəsi 2","Hobby market, Əhmədli",atm
1,430,balli-market-yguneshli-qesebesi-47,1,0,A,0,0,40.376322,49.978083,,,,"Yeni Günəşli qəsəbəsi, D yaşayış massivi, 12 nömrəli binanın arxası","Ballı market, Y.Günəşli qəsəbəsi",atm
1,431,favorit-market-hezi-aslanov-48,0,0,A,0,0,40.367565,49.95975,,,,"Xətai rayonu, Gəncə prospekti, məhəllə 29/42","Favorit market, Həzi Aslanov",atm
1,432,hezi-aslanov-metro-stansiyasi-49,0,0,A,0,0,40.372705,49.953461,,,,"""Həzi Aslanov"" metro stansiyası",Həzi Aslanov metro stansiyası,atm
1,433,zig-yolu-market-50,0,0,A,0,0,40.362046,49.947023,,,,"Xətai rayonu, Zığ şossesi 29","Zığ yolu, market",atm
1,434,xalqlar-dostlugu-metro-stansiyasi-51,0,0,A,0,0,40.397369,49.952495,,,,"""Xalqlar Dostluğu"" metro stansiyası",Xalqlar Dostluğu metro stansiyası,atm
1,435,bolmart-9-mkr-52,0,0,A,0,0,40.421146,49.814718,,,,"Binəqədi rayonu, M. Cəlal küşəsi 314","Bolmart, 9 mkr.",atm
1,436,neftciler-metro-stansiyasi-55,0,0,A,0,0,40.411466,49.942552,,,,Neftçilər metro stansiyası,Neftçilər metro stansiyası,atm
1,437,torpaqlarin-dovlet-idare-etmesinin-teshkili-uzre-dovlet-agentliyi-56,0,0,A,0,0,40.389774,49.815124,,,,"Yasamal rayonu, S.Mehdiyev küçəsi 269",Torpaqların Dövlət İdarə Etməsinin Təşkili Üzrə Dövlət Agentliyi,atm
1,438,bizim-market-kguneshli-qesebesi-57,0,0,A,0,0,40.363067,49.969296,,,,"Xətai rayonu, Kiçik Günəşli qəsəbəsi, İ.İsmayılov küçəsi 5C","Bizim Market, K.Günəşli qəsəbəsi",atm
1,439,araz-market-bileceri-qesebesi-58,0,0,A,0,0,40.437177,49.802025,,,,"Binəqədi rayonu, Biləcəri qəsəbəsi, A.Zeynallı küçəsi","Araz market, Biləcəri qəsəbəsi",atm
1,440,bineqedi-rayonu-koshk-61,0,0,A,0,0,40.469447,49.826298,,,,"Binəqədi rayonu, Binəqədi qəsəbəsi, G. Ramazanov küçəsi 33","Binəqədi rayonu, Köşk",atm
1,441,kurdexani-market-60,0,0,A,0,0,40.545602,49.916781,,,,"Sabunçu rayonu, Kürdəxanı qəsəbəsi, M.Adil küçəsi 30",Kürdəxanı market,atm
1,442,balli-market-hovsan-qesebesi-62,1,0,A,0,0,40.365261,50.074426,,,,"Suraxanı rayonu, Hövsan qəsəbəsi, Ə. Qasımov 15A","Ballı market, Hövsan qəsəbəsi",atm
1,443,baglar-market-qaracuxur-qesebesi-63,0,0,A,0,0,40.39656,49.977882,,,,"Suraxanı rayonu, Qaraçuxur qəsəbəsi, Bağlar küçəsi 2","Bağlar market, Qaraçuxur qəsəbəsi",atm
1,444,rahat-market-sabuncu-rayonu-64,0,0,A,0,0,40.444369,49.943724,,,,"Sabunçu rayonu, Ə. Məmmədəliyev küçəsi 12","Rahat market, Sabunçu rayonu",atm
1,445,poct-5-lokbatan-qesebesi-6,1,0,A,0,0,40.324562,49.728478,,,,"Qaradağ rayonu, Lökbatan qəsəbəsi, N.Nərimanov küçəsi 16","Poçt 5, Lökbatan qəsəbəsi",atm
1,446,beko-magazasi-sahil-qes-67,1,0,A,0,0,40.223711,49.57828,,,,"Qaradağ rayonu, Sahil qəsəbəsi, Dostluq küçəsi 41","Beko mağazası, Sahil qəs.",atm
1,447,market-elet-69,0,0,A,0,0,39.955682,49.405849,,,,"Qaradağ rayonu,Ələt qəsəbəsi, E.İmanov küçəsi","Market, Ələt",atm
1,448,zergerpalan-kuc-market-70,1,0,A,0,0,40.378337,49.830283,,,,"Yasamal rayonu, Zərgərpalan küçəsi 7","Zərgərpalan küç., Market",atm
1,449,buzovna-pansionati-73,0,0,A,0,0,40.525609,50.098595,,,,"Xəzər rayonu, Buzovna qəsəbəsi, R. İmanov küçəsi 5",Buzovna pansionatı,atm
1,450,qarabag-market-74,0,0,A,0,0,40.486524,49.838889,,,,Abşeron ray. Mehdiabad qəs.Qarant şəhərciyi,Qarabağ Market,atm
55,451,kimya-senaye-parki-913,0,0,A,0,0,40.587268,49.623274,,,,"Sumqayıt şəhəri, Kimyaçılar küçəsi 1",Kimya Sənaye Parkı,atm
1,452,favorit-market-shamaxinka-76,0,0,A,0,0,40.414015,49.804566,,,,"Binəqədi rayonu, 9-cu mkr., Mir Cəlal küçəsi 57","Favorit market, Şamaxinka",atm
1,453,bizim-market-yasamal-rayonu-78,0,0,A,0,0,40.39361,49.792893,,,,"Yasamal rayonu, Yeni Yasamal, Ə. Əhmədov küçəsi 19","Bizim Market, Yasamal rayonu",atm
1,454,bizim-market-badamdar-qesebesi-79,0,0,A,0,0,40.339863,49.80632,,,,"Səbail rayonu, Badamdar qəsəbəsi, R. İsgəndərov küçəsi 4A","Bizim Market, Badamdar qəsəbəsi",atm
1,455,premium-market-nesimi-rayonu-80,0,1,A,0,0,40.393611,49.839563,,,,"Nəsimi rayonu, Süleyman Rüstəm küçəsi 61","Premium market, Nəsimi rayonu",atm
1,456,dovlet-reyestr-xidmeti-81,0,0,A,0,0,40.406225,49.875634,,,,"Nərimanov rayonu, Ə.Əliyev küçəsi 13",Dövlət Reyestr Xidməti,atm
1,457,respublika-diaqnostika-merkezi-83,0,0,A,0,0,40.397745,49.813685,,,,"Yasamal rayonu, Tbilisi prospekti 31/66",Respublika Diaqnostika Mərkəzi,atm
1,458,qara-qarayev-filiali-atm-2-85,0,0,A,0,0,40.417904,49.934665,,,,"Nizami rayonu, Qara Qarayev prospekti 29","Qara Qarayev filialı, ATM 2",atm
1,459,grandmart-qqarayev-prospekti-86,0,0,A,0,0,40.414164,49.939865,,,,"Nizami rayonu, 8 km, Q. Qarayev prospekti 46","Grandmart, Q.Qarayev prospekti",atm
1,460,favorit-market-space-tv-ile-uzbeuz-1,0,0,A,0,0,40.366834,49.816215,,,,"Yasamal rayonu, H.Cavid pr. 17","Favorit market, Space TV ilə üzbəüz",atm
1,461,28-mall-1-ci-mert-90,0,1,A,0,0,40.379286,49.846784,,,,"Nəsimi rayonu, Füzuli küçəsi ilə Azadlıq prospektinin kəsişməsi","28 Mall, 1-ci mərt.",atm
1,462,bizim-market-bineqedi-rayonu-93,0,0,A,0,0,40.421207,49.842864,,,,"Binəqədi rayonu, İ.Dadaşov küçəsi 60","Bizim Market, Binəqədi rayonu",atm
1,463,1-sayli-asan-xidmet-merkezi-94,0,0,A,0,0,40.399016,49.835053,,,,"Nəsimi rayonu, Həsən Əliyev küçəsi 36",1 saylı ASAN xidmət mərkəzi,atm
1,464,madeyra-mebel-dukani-zabrat-qesebesi-95,0,0,A,0,0,40.472675,49.9477,,,,"Sabunçu rayonu, Zabrat qəsəbəsi, Babək küçəsi 92A","Madeyra mebel dükanı, Zabrat qəsəbəsi",atm
1,466,aptek-bileceri-99,0,0,A,0,0,40.432253,49.812731,,,,"Binəqədi rayonu, Binəqədi qəsəbəsi, Y. Hüseynov küçəsi, 13A","Aptek, Biləcəri",atm
1,467,penitensiar-xidmet-104,0,0,A,0,0,40.371283,49.833818,,,,"Nəsimi rayonu, Nizami küçəsi 114",Penitensiar Xidmət,atm
1,468,qarabag-market-mushfiqabad-qesebesi-105,0,0,A,0,0,40.472647,49.616212,,,,"Qaradağ rayonu, Müşfiqabad qəsəbəsi","Qarabağ market, Müşfiqabad qəsəbəsi",atm
1,469,4-sayli-asan-xidmet-merkezi-106,0,1,A,0,0,40.421448,49.969298,,,,"Sabunçu rayonu, Bakıxanov qəsəbəsi, Sülh küçəsi 8 A",4 saylı ASAN xidmət mərkəzi,atm
1,470,oba-market-bineqedi-rayonu-107,0,0,A,0,0,40.423095,49.834485,,,,"Binəqədi rayonu, Məsud Davudoğlu küçəsi 6B","Oba Market, Binəqədi rayonu",atm
1,471,baki-beynelxalq-avtovagzali-108,0,0,A,0,0,40.417586,49.798483,,,,"Binəqədı rayonu, Biləcəri qəs., Bakı-Sumqayıt şossesi, 3-cü km",Bakı Beynəlxalq Avtovağzalı,atm
1,472,aztelekom-ib-109,0,0,A,0,0,40.402479,49.808387,,,,"Yasamal rayonu,Tbilisi prospekti, 3166-cı məhəllə","""Aztelekom İB""",atm
1,473,ehmedli-metro-stansiyasi-117,0,0,A,0,0,40.385932,49.954204,,,,"""Əhmədli"" metro stansiyası",Əhmədli metro stansiyası,atm
55,475,asan-xidmet-sumqayit-956,0,0,A,0,0,40.587257,49.66468,,,,Sumqayıt şəhəri,"ASAN Xidmət, Sumqayıt",atm
55,476,delta-qrup-co-mmc-732,0,0,A,0,0,40.570291,49.639924,,,,"Sumqayıt şəhəri, Sənayə zonası, Sülh küçəsi, 76-cı məhəllə",Delta Qrup C.O. MMC,atm
26,477,baki-muhendislik-universiteti-716,0,0,A,0,0,40.47646,49.726354,,,,"Xırdalan şəhəri, Həsən Əliyev küçəsi 120",Bakı Mühəndislik Universiteti,atm
26,478,poct-xirdalan-sheheri-160,0,0,A,0,0,40.450453,49.751366,,,,"Xırdalan şəhəri, M.Ə.Rəsulzadə küçəsi 5","Poçt, Xırdalan şəhəri",atm
26,479,makromart-xirdalan-sheheri-166,0,0,A,0,0,40.461201,49.727706,,,,"Xırdalan şəhəri, H.Əliyev prospekti 167","Makromart, Xırdalan şəhəri",atm
26,480,bizim-market-xirdalan-sheheri-718,0,0,A,0,0,40.454454,49.745091,,,,"Xırdalan şəh., 27-ci məhəllə, Qalubiyyə küçəsi 3/14","Bizim Market, Xırdalan şəhəri",atm
26,481,absheron-rayon-filiali-843,0,0,A,0,0,40.452874,49.751297,,,,"Abşeron rayonu, Xırdalan şəhəri, Qəzənfər Musabəyov küçəsi 22",Abşeron rayon filialı,atm
